$GPGGA,053134.718,4000.0002,N,11600.8603,E,1,3,4.912,0.000,M,,M,,*7C
$GPGLL,4000.0002,N,11600.8603,E,053134.718,A,A*5A
$GPGSA,A,3,6,16,30,,,,,,,,,,4.983,4.912,0.834*07
$GPGSV,6,1,24,2,41,286,,3,5,,52,4,68,30,,5,22,219,*44
$GPGSV,6,2,24,6,71,80,52,7,5,,52,10,79,171,,12,31,294,*47
$GPGSV,6,3,24,13,27,79,52,16,61,36,52,17,53,132,,19,5,,52*7C
$GPGSV,6,4,24,21,5,,52,23,23,60,52,25,12,320,,30,35,65,52*79
$GPGSV,6,5,24,101,21,120,,102,5,,,103,5,,,104,17,112,*7C
$GPGSV,6,6,24,105,5,,,107,5,,,108,43,47,,110,5,,42*43
$GPRMC,053134.718,A,4000.0002,N,11600.8603,E,21.334,90.71,011211,,E,A*12

$GPGGA,053135.718,4000.0036,N,11600.8663,E,6,3,4.914,0.000,M,,M,,*7D
$GPGLL,4000.0036,N,11600.8663,E,053135.718,A,E*5E
$GPGSA,A,3,6,16,30,,,,,,,,,,4.984,4.914,0.834*06
$GPGSV,6,1,24,2,41,286,,3,5,,49,4,68,30,,5,22,219,*4E
$GPGSV,6,2,24,6,71,79,52,7,5,,51,10,79,171,,12,31,294,*42
$GPGSV,6,3,24,13,27,79,51,16,61,36,49,17,53,132,,19,5,,51*76
$GPGSV,6,4,24,21,5,,50,23,23,60,51,25,12,320,,30,35,65,51*7B
$GPGSV,6,5,24,101,21,120,,102,5,,,103,5,,,104,17,112,*7C
$GPGSV,6,6,24,105,5,,,107,5,,,108,43,47,,110,5,,40*41
$GPRMC,053135.718,A,4000.0036,N,11600.8663,E,21.376,90.11,011211,,E,E*16
$GPGGA,053136.718,4000.0037,N,11600.8756,E,6,3,4.915,0.000,M,,M,,*79
$GPGLL,4000.0037,N,11600.8756,E,053136.718,A,E*5B
$GPGSA,A,3,6,16,30,,,,,,,,,,4.986,4.915,0.834*05
$GPGSV,6,1,24,2,41,286,,3,5,,49,4,68,30,,5,22,219,*4E
$GPGSV,6,2,24,6,71,79,50,7,5,,51,10,79,171,,12,31,294,*40
$GPGSV,6,3,24,13,27,79,50,16,61,36,49,17,53,132,,19,5,,50*76
$GPGSV,6,4,24,21,5,,49,23,23,60,51,25,12,320,,30,35,65,51*73
$GPGSV,6,5,24,101,21,120,,102,5,,,103,5,,,104,17,112,*7C
$GPGSV,6,6,24,105,5,,,107,5,,,108,43,47,,110,5,,41*40
$GPRMC,053136.718,A,4000.0037,N,11600.8756,E,21.434,90.89,011211,,E,E*13
$GPGGA,053137.718,4000.0037,N,11600.8843,E,6,3,4.917,0.000,M,,M,,*71
$GPGLL,4000.0037,N,11600.8843,E,053137.718,A,E*51
$GPGSA,A,3,6,16,30,,,,,,,,,,4.987,4.917,0.835*07
$GPGSV,6,1,24,2,41,286,,3,5,,50,4,68,30,,5,22,219,*46
$GPGSV,6,2,24,6,71,79,49,7,5,,51,10,79,171,,12,31,294,*48
$GPGSV,6,3,24,13,27,79,49,16,61,36,50,17,53,132,,19,5,,49*7E
$GPGSV,6,4,24,21,5,,51,23,23,60,49,25,12,320,,30,35,65,51*73
$GPGSV,6,5,24,101,21,120,,102,5,,,103,5,,,104,17,112,*7C
$GPGSV,6,6,24,105,5,,,107,5,,,108,43,47,,110,5,,27*40
$GPRMC,053137.718,A,4000.0037,N,11600.8843,E,21.398,91.27,011211,,E,E*1D
$GPGGA,053138.718,4000.0030,N,11600.8911,E,6,3,4.918,0.000,M,,M,,*70
$GPGLL,4000.0030,N,11600.8911,E,053138.718,A,E*5F
$GPGSA,A,3,6,16,30,,,,,,,,,,4.988,4.918,0.835*07
$GPGSV,6,1,24,2,41,286,,3,5,,52,4,68,30,,5,22,219,*44
$GPGSV,6,2,24,6,71,79,51,7,5,,52,10,79,171,,12,31,294,*42
$GPGSV,6,3,24,13,27,79,51,16,61,36,52,17,53,132,,19,5,,51*7C
$GPGSV,6,4,24,21,5,,52,23,23,60,51,25,12,320,,30,35,65,51*79
$GPGSV,6,5,24,101,21,120,,102,5,,,103,5,,,104,17,112,*7C
$GPGSV,6,6,24,105,5,,,107,5,,,108,43,47,,110,5,,28*4F
$GPRMC,053138.718,A,4000.0030,N,11600.8911,E,21.454,90.99,011211,,E,E*10
$GPGGA,053139.718,4000.0014,N,11600.8995,E,6,3,4.919,0.000,M,,M,,*7A
$GPGLL,4000.0014,N,11600.8995,E,053139.718,A,E*54
$GPGSA,A,3,6,16,30,,,,,,,,,,4.990,4.919,0.835*0F
$GPGSV,6,1,24,2,41,286,,3,5,,52,4,68,30,,5,22,219,*44
$GPGSV,6,2,24,6,71,79,52,7,5,,52,10,79,171,,12,31,294,*41
$GPGSV,6,3,24,13,27,79,52,16,60,37,52,17,53,132,,19,5,,52*7C
$GPGSV,6,4,24,21,5,,52,23,23,60,52,25,12,320,,30,35,65,52*79
$GPGSV,6,5,24,101,21,120,,102,5,,,103,5,,,104,17,112,*7C
$GPGSV,6,6,24,105,5,,,107,5,,,108,43,47,,110,5,,28*4F
$GPRMC,053139.718,A,4000.0014,N,11600.8995,E,21.428,90.95,011211,,E,E*1C
$GPGGA,053140.718,4000.0021,N,11600.9065,E,6,3,4.921,0.000,M,,M,,*7E
$GPGLL,4000.0021,N,11600.9065,E,053140.718,A,E*5B
$GPGSA,A,3,6,16,30,,,,,,,,,,4.991,4.921,0.835*05
$GPGSV,6,1,24,2,41,286,,3,5,,52,4,68,30,,5,22,219,*44
$GPGSV,6,2,24,6,71,79,52,7,5,,52,10,79,171,,12,31,294,*41
$GPGSV,6,3,24,13,27,79,52,16,60,37,52,17,53,132,,19,5,,52*7C
$GPGSV,6,4,24,21,5,,52,23,23,60,52,25,12,320,,30,35,65,52*79
$GPGSV,6,5,24,101,21,120,,104,17,112,,106,5,,,107,5,,*7C
$GPGSV,6,6,24,108,43,47,,109,5,,,110,5,,28,111,5,,*44
$GPRMC,053140.718,A,4000.0021,N,11600.9065,E,21.429,90.89,011211,,E,E*1F
$GPGGA,053141.718,4000.0009,N,11600.9142,E,6,3,4.922,0.000,M,,M,,*72
$GPGLL,4000.0009,N,11600.9142,E,053141.718,A,E*54
$GPGSA,A,3,6,16,30,,,,,,,,,,4.993,4.922,0.835*04
$GPGSV,6,1,24,2,41,286,,3,5,,51,4,68,30,,5,22,219,*47
$GPGSV,6,2,24,6,71,79,51,7,5,,51,10,79,171,,12,31,294,*41
$GPGSV,6,3,24,13,27,79,51,16,60,37,51,17,53,132,,19,5,,51*7F
$GPGSV,6,4,24,21,5,,51,23,23,60,51,25,12,320,,30,34,65,51*7B
$GPGSV,6,5,24,101,21,120,,104,17,112,,106,5,,,107,5,,*7C
$GPGSV,6,6,24,108,43,47,,109,5,,,110,5,,,111,5,,*4E
$GPRMC,053141.718,A,4000.0009,N,11600.9142,E,21.478,91.01,011211,,E,E*15
$GPGGA,053142.718,4000.0000,N,11600.9232,E,6,3,4.924,0.000,M,,M,,*7A
$GPGLL,4000.0000,N,11600.9232,E,053142.718,A,E*5A
$GPGSA,A,3,6,16,30,,,,,,,,,,4.994,4.924,0.835*05
$GPGSV,6,1,24,2,41,286,,3,5,,51,4,68,30,,5,22,219,*47
$GPGSV,6,2,24,6,71,79,50,7,5,,50,10,79,171,,12,31,294,*41
$GPGSV,6,3,24,13,27,79,50,16,60,37,51,17,53,132,,19,5,,50*7F
$GPGSV,6,4,24,21,5,,51,23,23,60,50,25,12,320,,30,34,65,50*7B
$GPGSV,6,5,24,101,21,120,,104,17,112,,106,5,,,107,5,,*7C
$GPGSV,6,6,24,108,43,47,,109,5,,,110,5,,,111,5,,*4E
$GPRMC,053142.718,A,4000.0000,N,11600.9232,E,21.546,90.86,011211,,E,E*19
$GPGGA,053143.718,4000.0022,N,11600.9297,E,6,3,4.925,0.000,M,,M,,*75
$GPGLL,4000.0022,N,11600.9297,E,053143.718,A,E*54
$GPGSA,A,3,6,16,30,,,,,,,,,,4.995,4.925,0.835*05
$GPGSV,6,1,24,2,41,286,,3,5,,51,4,68,30,,5,22,219,*47
$GPGSV,6,2,24,6,71,79,51,7,5,,49,10,79,171,,12,31,294,*48
$GPGSV,6,3,24,13,27,79,51,16,60,37,51,17,53,132,,19,5,,51*7F
$GPGSV,6,4,24,21,5,,51,23,23,60,51,25,12,320,,30,34,65,49*72
$GPGSV,6,5,24,101,21,120,,104,17,112,43,106,5,,,107,5,,*7B
$GPGSV,6,6,24,108,43,47,,109,5,,,110,5,,,111,5,,*4E
$GPRMC,053143.718,A,4000.0022,N,11600.9297,E,21.535,90.88,011211,,E,E*1D
$GPGGA,053144.718,4000.0019,N,11600.9377,E,6,3,4.927,0.000,M,,M,,*77
$GPGLL,4000.0019,N,11600.9377,E,053144.718,A,E*54
$GPGSA,A,3,6,16,30,,,,,,,,,,4.997,4.927,0.835*05
$GPGSV,6,1,24,2,41,286,,3,5,,52,4,68,30,,5,22,219,*44
$GPGSV,6,2,24,6,71,79,51,7,5,,51,10,79,171,,12,31,294,*41
$GPGSV,6,3,24,13,27,79,51,16,60,37,52,17,53,132,,19,5,,51*7C
$GPGSV,6,4,24,21,5,,52,23,23,60,51,25,12,320,,30,34,65,51*78
$GPGSV,6,5,24,101,21,120,,104,17,112,38,106,5,,,107,5,,*77
$GPGSV,6,6,24,108,43,47,,109,5,,,110,5,,,111,5,,*4E
$GPRMC,053144.718,A,4000.0019,N,11600.9377,E,21.443,90.80,011211,,E,E*15
$GPGGA,053145.718,4000.0015,N,11600.9451,E,6,3,4.928,0.000,M,,M,,*76
$GPGLL,4000.0015,N,11600.9451,E,053145.718,A,E*5A
$GPGSA,A,3,6,16,30,,,,,,,,,,4.998,4.928,0.836*06
$GPGSV,6,1,24,2,41,286,,3,5,,51,4,68,30,,5,22,219,*47
$GPGSV,6,2,24,6,71,79,51,7,5,,51,10,79,171,,12,31,294,*41
$GPGSV,6,3,24,13,27,79,51,16,60,37,51,17,53,132,,19,5,,51*7F
$GPGSV,6,4,24,21,5,,52,23,23,60,51,25,12,320,,30,34,65,51*78
$GPGSV,6,5,24,101,21,120,,104,17,112,40,106,5,,,107,5,,*78
$GPGSV,6,6,24,108,43,47,,109,5,,,110,5,,,111,5,,*4E
$GPRMC,053145.718,A,4000.0015,N,11600.9451,E,21.553,91.05,011211,,E,E*17
$GPGGA,053146.718,4000.0012,N,11600.9521,E,6,3,4.929,0.000,M,,M,,*75
$GPGLL,4000.0012,N,11600.9521,E,053146.718,A,E*58
$GPGSA,A,3,6,16,30,,,,,,,,,,5.000,4.929,0.836*0E
$GPGSV,6,1,24,2,41,286,,3,5,,51,4,68,30,,5,22,219,*47
$GPGSV,6,2,24,6,71,79,51,7,5,,51,10,79,171,,12,31,294,*41
$GPGSV,6,3,24,13,27,79,51,16,60,37,51,17,53,132,,19,5,,51*7F
$GPGSV,6,4,24,21,5,,51,23,23,60,51,25,12,320,,30,34,65,51*7B
$GPGSV,6,5,24,101,21,120,,104,17,112,40,106,5,,,107,5,,*78
$GPGSV,6,6,24,108,43,47,,109,5,,,110,5,,44,111,5,,*4E
$GPRMC,053146.718,A,4000.0012,N,11600.9521,E,21.485,90.80,011211,,E,E*13
$GPGGA,053147.718,4000.0007,N,11600.9598,E,6,3,4.931,0.000,M,,M,,*7B
$GPGLL,4000.0007,N,11600.9598,E,053147.718,A,E*5F
$GPGSA,A,3,6,16,30,,,,,,,,,,5.001,4.931,0.836*06
$GPGSV,6,1,24,2,41,286,,3,5,,51,4,68,30,,5,22,219,*47
$GPGSV,6,2,24,6,71,79,51,7,5,,52,10,79,171,,12,31,294,*42
$GPGSV,6,3,24,13,27,79,51,16,60,37,51,17,53,132,,19,5,,51*7F
$GPGSV,6,4,24,21,5,,52,23,23,60,51,25,12,320,,30,34,65,51*78
$GPGSV,6,5,24,101,21,120,,104,17,112,40,106,5,,,107,5,,*78
$GPGSV,6,6,24,108,43,47,,109,5,,,110,5,,44,111,5,,*4E
$GPRMC,053147.718,A,4000.0007,N,11600.9598,E,21.466,90.76,011211,,E,E*10
$GPGGA,053148.718,4000.0022,N,11600.9680,E,6,3,4.932,0.000,M,,M,,*7A
$GPGLL,4000.0022,N,11600.9680,E,053148.718,A,E*5D
$GPGSA,A,3,6,16,30,,,,,,,,,,5.003,4.932,0.836*07
$GPGSV,6,1,24,2,41,286,,3,5,,51,4,68,30,,5,22,219,*47
$GPGSV,6,2,24,6,71,79,51,7,5,,52,10,79,171,,12,31,294,*42
$GPGSV,6,3,24,13,27,79,51,16,60,37,51,17,53,132,,19,5,,51*7F
$GPGSV,6,4,24,21,5,,52,23,23,60,51,25,12,320,,30,34,65,51*78
$GPGSV,6,5,24,101,21,120,,104,17,112,40,106,5,,,107,5,,*78
$GPGSV,6,6,24,108,43,47,,109,5,,,110,5,,31,111,5,,*4C
$GPRMC,053148.718,A,4000.0022,N,11600.9680,E,21.461,90.87,011211,,E,E*1B
$GPGGA,053149.718,4000.0026,N,11600.9756,E,6,3,4.934,0.000,M,,M,,*73
$GPGLL,4000.0026,N,11600.9756,E,053149.718,A,E*52
$GPGSA,A,3,6,16,30,,,,,,,,,,5.004,4.934,0.836*06
$GPGSV,6,1,24,2,41,286,,3,5,,51,4,68,30,,5,22,219,*47
$GPGSV,6,2,24,6,71,79,50,7,5,,51,10,79,171,,12,31,294,*40
$GPGSV,6,3,24,13,27,79,50,16,60,37,51,17,53,132,,19,5,,50*7F
$GPGSV,6,4,24,21,5,,51,23,23,60,50,25,12,320,,30,34,65,51*7A
$GPGSV,6,5,24,101,21,120,,104,17,112,40,106,5,,,107,5,,*78
$GPGSV,6,6,24,108,43,47,,109,5,,,110,5,,28,111,5,,42*42
$GPRMC,053149.718,A,4000.0026,N,11600.9756,E,21.405,90.71,011211,,E,E*1F
$GPGGA,053150.718,4000.0014,N,11600.9852,E,6,3,4.935,0.000,M,,M,,*70
$GPGLL,4000.0014,N,11600.9852,E,053150.718,A,E*50
$GPGSA,A,3,6,16,30,,,,,,,,,,5.006,4.935,0.836*05
$GPGSV,6,1,24,2,41,286,,3,5,,51,4,68,30,,5,22,219,*47
$GPGSV,6,2,24,6,71,79,50,7,5,,51,10,79,171,,12,31,294,*40
$GPGSV,6,3,24,13,27,79,50,16,60,37,51,17,53,132,,19,5,,50*7F
$GPGSV,6,4,24,21,5,,51,23,23,60,51,25,12,320,,30,34,65,51*7B
$GPGSV,6,5,24,101,21,120,,104,17,112,39,108,43,47,,109,5,,*47
$GPGSV,6,6,24,110,5,,28,111,5,,42,112,5,,,113,5,,*73
$GPRMC,053150.718,A,4000.0014,N,11600.9852,E,21.470,90.86,011211,,E,E*17
$GPGGA,053151.718,4000.0012,N,11600.9892,E,1,4,5.424,-7.496,M,,M,,*56
$GPGLL,4000.0012,N,11600.9892,E,053151.718,A,A*5F
$GPGSA,A,3,6,16,19,30,,,,,,,,,7.651,5.424,5.396*03
$GPGSV,6,1,24,2,41,286,,3,5,,51,4,68,30,,5,22,219,*47
$GPGSV,6,2,24,6,71,79,51,7,5,,51,10,79,171,,12,31,294,*41
$GPGSV,6,3,24,13,27,79,51,16,60,37,51,17,53,132,,19,48,192,51*7C
$GPGSV,6,4,24,21,5,,52,23,23,60,51,25,12,320,,30,34,65,51*78
$GPGSV,6,5,24,101,21,120,,104,17,112,40,108,43,47,,109,5,,*49
$GPGSV,6,6,24,110,5,,28,111,5,,42,112,5,,,113,5,,*73
$GPRMC,053151.718,A,4000.0012,N,11600.9892,E,21.668,90.49,011211,,E,A*10
$GPGGA,053152.717,4000.0005,N,11600.9975,E,1,4,5.426,-6.011,M,,M,,*5C
$GPGLL,4000.0005,N,11600.9975,E,053152.717,A,A*5D
$GPGSA,A,3,6,16,19,30,,,,,,,,,7.654,5.426,5.398*0A
$GPGSV,6,1,24,2,41,286,,3,5,,51,4,68,30,,5,22,219,*47
$GPGSV,6,2,24,6,71,79,52,7,5,,52,10,79,171,,12,31,294,*41
$GPGSV,6,3,24,13,27,79,51,16,60,37,51,17,53,132,,19,48,192,51*7C
$GPGSV,6,4,24,21,5,,52,23,23,60,52,25,12,320,,30,34,65,51*7B
$GPGSV,6,5,24,101,21,120,,104,17,112,40,108,43,47,,109,5,,*49
$GPGSV,6,6,24,110,5,,28,111,5,,42,112,5,,,113,5,,*73
$GPRMC,053152.717,A,4000.0005,N,11600.9975,E,21.732,90.57,011211,,E,A*13
$GPGGA,053153.717,4000.0005,N,11601.0050,E,1,4,5.429,-6.795,M,,M,,*5F
$GPGLL,4000.0005,N,11601.0050,E,053153.717,A,A*5A
$GPGSA,A,3,6,16,19,30,,,,,,,,,7.657,5.429,5.400*00
$GPGSV,6,1,24,2,41,286,,3,5,,51,4,68,30,,5,22,219,*47
$GPGSV,6,2,24,6,71,79,51,7,5,,51,10,79,171,,12,31,294,*41
$GPGSV,6,3,24,13,27,79,51,16,60,37,51,17,53,132,,19,48,192,51*7C
$GPGSV,6,4,24,21,5,,51,23,23,60,51,25,12,320,,30,34,65,51*7B
$GPGSV,6,5,24,101,21,120,,104,17,112,40,108,43,47,42,109,5,,*4F
$GPGSV,6,6,24,110,5,,44,111,5,,28,112,5,,,113,5,,*75
$GPRMC,053153.717,A,4000.0005,N,11601.0050,E,21.756,90.58,011211,,E,A*19
$GPGGA,053155.000,4000.0003,N,11601.0157,E,1,4,5.431,-3.929,M,,M,,*5D
$GPGLL,4000.0003,N,11601.0157,E,053155.000,A,A*5D
$GPGSA,A,3,6,16,19,30,,,,,,,,,7.660,5.431,5.402*0F
$GPGSV,6,1,24,2,41,286,,3,5,,52,4,68,30,,5,22,219,*44
$GPGSV,6,2,24,6,71,79,52,7,5,,52,10,79,171,,12,31,294,*41
$GPGSV,6,3,24,13,27,79,52,16,60,37,52,17,53,132,,19,48,192,52*7F
$GPGSV,6,4,24,21,5,,52,23,23,60,52,25,12,320,,30,34,65,52*78
$GPGSV,6,5,24,101,21,120,,104,17,112,40,108,43,47,43,109,5,,*4E
$GPGSV,6,6,24,110,5,,44,111,5,,28,112,5,,,113,5,,41*70
$GPRMC,053155.000,A,4000.0003,N,11601.0157,E,21.773,90.57,011211,,E,A*16
$GPGGA,053156.000,4000.0001,N,11601.0240,E,1,4,5.434,-1.938,M,,M,,*5E
$GPGLL,4000.0001,N,11601.0240,E,053156.000,A,A*59
$GPGSA,A,3,6,16,19,30,,,,,,,,,7.663,5.434,5.404*0F
$GPGSV,6,1,24,2,41,286,,3,5,,51,4,68,30,,5,22,219,*47
$GPGSV,6,2,24,6,71,79,52,7,5,,52,10,79,171,,12,31,294,*41
$GPGSV,6,3,24,13,27,79,51,16,60,37,52,17,53,132,,19,48,192,52*7C
$GPGSV,6,4,24,21,5,,52,23,23,60,52,25,12,320,,30,34,65,52*78
$GPGSV,6,5,24,101,21,120,,104,17,112,39,108,43,47,30,109,5,,*44
$GPGSV,6,6,24,110,5,,30,111,5,,28,112,5,,,113,5,,41*73
$GPRMC,053156.000,A,4000.0001,N,11601.0240,E,21.704,90.51,011211,,E,A*14
$GPGGA,053157.000,4000.0002,N,11601.0319,E,1,4,5.436,-3.301,M,,M,,*51
$GPGLL,4000.0002,N,11601.0319,E,053157.000,A,A*56
$GPGSA,A,3,6,16,19,30,,,,,,,,,7.666,5.436,5.406*0A
$GPGSV,6,1,24,2,41,286,,3,5,,52,4,68,30,,5,22,219,*44
$GPGSV,6,2,24,6,71,79,52,7,5,,52,10,79,171,,12,31,294,*41
$GPGSV,6,3,24,13,27,79,52,16,60,37,52,17,53,132,,19,48,192,51*7C
$GPGSV,6,4,24,21,5,,52,23,23,60,51,25,12,320,,30,34,65,51*78
$GPGSV,6,5,24,101,21,120,,104,17,112,39,108,43,47,28,109,5,,*4D
$GPGSV,6,6,24,110,5,,28,111,5,,28,112,5,,,113,5,,42*79
$GPRMC,053157.000,A,4000.0002,N,11601.0319,E,21.836,90.69,011211,,E,A*1E
$GPGGA,053158.000,4000.0004,N,11601.0397,E,1,9,1.236,-8.893,M,,M,,*5A
$GPGLL,4000.0004,N,11601.0397,E,053158.000,A,A*59
$GPGSA,A,3,3,6,7,13,16,19,21,23,30,,,,2.078,1.236,1.670*07
$GPGSV,6,1,24,2,41,286,,3,80,149,51,4,68,31,,5,22,219,*47
$GPGSV,6,2,24,6,71,79,51,7,18,310,51,10,80,170,,12,31,294,*48
$GPGSV,6,3,24,13,48,276,51,16,60,37,51,17,53,132,,19,48,192,51*48
$GPGSV,6,4,24,21,14,55,51,23,45,230,51,25,12,319,,30,34,65,51*76
$GPGSV,6,5,24,101,21,120,,104,17,112,39,108,43,47,28,109,5,,*4D
$GPGSV,6,6,24,110,5,,28,111,5,,,112,5,,,113,5,,28*7F
$GPRMC,053158.000,A,4000.0004,N,11601.0397,E,22.246,89.79,011211,,E,A*16
$GPGGA,053159.000,4000.0005,N,11601.0473,E,1,9,1.236,-8.934,M,,M,,*5B
$GPGLL,4000.0005,N,11601.0473,E,053159.000,A,A*54
$GPGSA,A,3,3,6,7,13,16,19,21,23,30,,,,2.078,1.236,1.670*07
$GPGSV,6,1,24,2,41,286,,3,80,149,52,4,68,31,,5,22,219,*44
$GPGSV,6,2,24,6,71,79,52,7,18,310,52,10,80,170,,12,31,294,*48
$GPGSV,6,3,24,13,48,276,52,16,60,37,52,17,53,132,,19,48,192,52*4B
$GPGSV,6,4,24,21,14,55,52,23,45,230,52,25,12,319,,30,34,65,52*75
$GPGSV,6,5,24,101,21,120,,104,17,112,39,108,43,47,28,109,5,,*4D
$GPGSV,6,6,24,110,5,,28,111,5,,,112,5,,,113,5,,27*70
$GPRMC,053159.000,A,4000.0005,N,11601.0473,E,22.239,89.73,011211,,E,A*19
$GPGGA,053200.000,4000.0004,N,11601.0553,E,1,9,1.236,-9.158,M,,M,,*55
$GPGLL,4000.0004,N,11601.0553,E,053200.000,A,A*59
$GPGSA,A,3,3,6,7,13,16,19,21,23,30,,,,2.078,1.236,1.671*06
$GPGSV,6,1,24,2,41,286,,3,80,149,51,4,68,31,,5,22,219,*47
$GPGSV,6,2,24,6,71,79,50,7,18,310,50,10,80,170,,12,31,294,*48
$GPGSV,6,3,24,13,48,276,50,16,60,37,51,17,53,132,,19,48,192,50*48
$GPGSV,6,4,24,21,14,55,51,23,45,230,50,25,12,319,,30,34,65,50*76
$GPGSV,6,5,24,101,21,120,,104,17,112,39,108,43,47,,109,5,,*47
$GPGSV,6,6,24,110,5,,28,111,5,,,112,5,,,113,5,,27*70
$GPRMC,053200.000,A,4000.0004,N,11601.0553,E,22.263,89.81,011211,,E,A*16
$GPGGA,053201.000,4000.0003,N,11601.0620,E,1,9,1.236,-0.321,M,,M,,*51
$GPGLL,4000.0003,N,11601.0620,E,053201.000,A,A*58
$GPGSA,A,3,3,6,7,13,16,19,21,23,30,,,,2.078,1.236,1.671*06
$GPGSV,6,1,24,2,41,286,,3,80,149,51,4,68,31,,5,22,219,*47
$GPGSV,6,2,24,6,71,79,51,7,18,310,51,10,80,170,,12,31,294,*48
$GPGSV,6,3,24,13,48,276,51,16,60,37,51,17,53,132,,19,48,192,51*48
$GPGSV,6,4,24,21,14,55,52,23,45,230,51,25,12,319,,30,34,65,51*75
$GPGSV,6,5,24,101,21,120,,102,5,,,103,5,,,104,17,112,39*76
$GPGSV,6,6,24,108,43,47,,110,5,,44,113,5,,27,114,5,,*45
$GPRMC,053201.000,A,4000.0003,N,11601.0620,E,21.618,90.30,011211,,E,A*1E
$GPGGA,053202.000,4000.0001,N,11601.0704,E,1,9,1.236,-2.128,M,,M,,*5E
$GPGLL,4000.0001,N,11601.0704,E,053202.000,A,A*5E
$GPGSA,A,3,3,6,7,13,16,19,21,23,30,,,,2.078,1.236,1.671*06
$GPGSV,6,1,24,2,41,286,,3,80,149,52,4,68,31,,5,22,219,*44
$GPGSV,6,2,24,6,71,79,52,7,18,310,52,10,80,170,,12,31,294,*48
$GPGSV,6,3,24,13,48,276,52,16,60,37,52,17,53,132,,19,48,192,52*4B
$GPGSV,6,4,24,21,14,54,52,23,45,230,52,25,12,319,,30,34,65,52*74
$GPGSV,6,5,24,101,36,146,,102,5,,43,103,5,,,104,17,112,39*77
$GPGSV,6,6,24,108,43,47,,110,5,,44,113,5,,,114,5,,*40
$GPRMC,053202.000,A,4000.0001,N,11601.0704,E,22.251,92.40,011211,,E,A*17
$GPGGA,053203.000,4000.0003,N,11601.0785,E,1,9,1.237,-2.042,M,,M,,*58
$GPGLL,4000.0003,N,11601.0785,E,053203.000,A,A*54
$GPGSA,A,3,3,6,7,13,16,19,21,23,30,,,,2.079,1.237,1.671*06
$GPGSV,6,1,24,2,41,286,,3,80,149,51,4,68,31,,5,22,219,*47
$GPGSV,6,2,24,6,71,79,52,7,18,310,52,10,80,170,,12,31,294,*48
$GPGSV,6,3,24,13,48,276,52,16,60,37,51,17,53,132,,19,48,192,52*48
$GPGSV,6,4,24,21,14,54,52,23,45,230,52,25,12,319,,30,34,65,52*74
$GPGSV,6,5,24,101,36,146,,102,5,,39,103,5,,,104,17,112,39*7A
$GPGSV,6,6,24,108,43,47,,110,5,,31,113,5,,41,114,5,,*47
$GPRMC,053203.000,A,4000.0003,N,11601.0785,E,21.953,89.39,011211,,E,A*13
$GPGGA,053204.000,4000.0002,N,11601.0865,E,1,9,1.237,-3.168,M,,M,,*57
$GPGLL,4000.0002,N,11601.0865,E,053204.000,A,A*53
$GPGSA,A,3,3,6,7,13,16,19,21,23,30,,,,2.079,1.237,1.671*06
$GPGSV,6,1,24,2,41,286,,3,80,149,52,4,68,31,,5,22,219,*44
$GPGSV,6,2,24,6,71,79,52,7,18,310,52,10,80,170,,12,31,294,*48
$GPGSV,6,3,24,13,48,276,52,16,60,37,52,17,53,132,,19,48,192,52*4B
$GPGSV,6,4,24,21,14,54,52,23,45,230,52,25,12,319,,30,34,65,52*74
$GPGSV,6,5,24,101,36,146,,102,5,,39,103,5,,,104,17,112,39*7A
$GPGSV,6,6,24,108,43,47,,110,5,,31,113,5,,41,114,5,,43*40
$GPRMC,053204.000,A,4000.0002,N,11601.0865,E,21.153,89.81,011211,,E,A*1F
$GPGGA,053205.000,3959.9999,N,11601.0949,E,1,9,1.237,-5.022,M,,M,,*50
$GPGLL,3959.9999,N,11601.0949,E,053205.000,A,A*5D
$GPGSA,A,3,3,6,7,13,16,19,21,23,30,,,,2.079,1.237,1.671*06
$GPGSV,6,1,24,2,41,286,,3,80,149,52,4,68,31,,5,22,219,*44
$GPGSV,6,2,24,6,71,79,52,7,18,310,52,10,80,170,,12,31,294,*48
$GPGSV,6,3,24,13,48,276,52,16,60,37,52,17,53,132,,19,48,192,52*4B
$GPGSV,6,4,24,21,14,54,52,23,45,230,52,25,12,319,,30,34,65,52*74
$GPGSV,6,5,24,101,36,146,,102,5,,39,103,5,,,104,17,112,39*7A
$GPGSV,6,6,24,108,43,47,,110,5,,30,113,5,,41,114,5,,43*41
$GPRMC,053205.000,A,3959.9999,N,11601.0949,E,22.047,92.15,011211,,E,A*11
$GPGGA,053206.000,3959.9996,N,11601.1032,E,1,9,1.237,-5.943,M,,M,,*56
$GPGLL,3959.9996,N,11601.1032,E,053206.000,A,A*55
$GPGSA,A,3,3,6,7,13,16,19,21,23,30,,,,2.079,1.237,1.671*06
$GPGSV,6,1,24,2,41,286,,3,80,149,52,4,68,31,,5,22,219,*44
$GPGSV,6,2,24,6,71,79,52,7,18,310,52,10,80,170,,12,31,294,*48
$GPGSV,6,3,24,13,48,276,52,16,60,37,52,17,53,132,,19,48,192,52*4B
$GPGSV,6,4,24,21,14,54,52,23,45,230,52,25,12,319,,30,34,65,52*74
$GPGSV,6,5,24,101,36,146,,102,5,,39,103,5,,,104,17,112,39*7A
$GPGSV,6,6,24,108,43,47,,110,5,,28,113,5,,42,114,5,,43*4B
$GPRMC,053206.000,A,3959.9996,N,11601.1032,E,22.018,90.10,011211,,E,A*14
$GPGGA,053207.000,3959.9995,N,11601.1113,E,1,9,1.237,-5.919,M,,M,,*59
$GPGLL,3959.9995,N,11601.1113,E,053207.000,A,A*55
$GPGSA,A,3,3,6,7,13,16,19,21,23,30,,,,2.079,1.237,1.671*06
$GPGSV,6,1,24,2,41,286,,3,80,149,52,4,68,31,,5,22,219,*44
$GPGSV,6,2,24,6,71,79,52,7,19,310,52,10,80,170,,12,31,294,*49
$GPGSV,6,3,24,13,48,276,52,16,60,37,52,17,53,132,,19,48,192,52*4B
$GPGSV,6,4,24,21,14,54,52,23,45,230,52,25,12,319,,30,34,65,52*74
$GPGSV,6,5,24,101,36,146,,102,5,,39,103,5,,,104,17,112,39*7A
$GPGSV,6,6,24,108,43,47,,110,5,,28,113,5,,41,114,5,,43*48
$GPRMC,053207.000,A,3959.9995,N,11601.1113,E,21.648,90.18,011211,,E,A*1C
$GPGGA,053208.000,3959.9995,N,11601.1193,E,1,9,1.237,-5.540,M,,M,,*5E
$GPGLL,3959.9995,N,11601.1193,E,053208.000,A,A*52
$GPGSA,A,3,3,6,7,13,16,19,21,23,30,,,,2.079,1.237,1.671*06
$GPGSV,6,1,24,2,41,286,,3,80,149,51,4,68,31,,5,22,219,*47
$GPGSV,6,2,24,6,71,79,51,7,19,310,51,10,80,170,,12,31,294,*49
$GPGSV,6,3,24,13,48,276,51,16,60,37,51,17,53,132,,19,48,192,51*48
$GPGSV,6,4,24,21,14,54,51,23,45,230,51,25,12,319,,30,34,65,51*77
$GPGSV,6,5,24,101,36,146,,102,5,,39,103,5,,,104,17,112,39*7A
$GPGSV,6,6,24,108,43,47,,110,5,,28,113,5,,42,114,5,,42*4A
$GPRMC,053208.000,A,3959.9995,N,11601.1193,E,21.664,90.19,011211,,E,A*14
$GPGGA,053209.000,3959.9998,N,11601.1269,E,1,9,1.237,-5.366,M,,M,,*56
$GPGLL,3959.9998,N,11601.1269,E,053209.000,A,A*58
$GPGSA,A,3,3,6,7,13,16,19,21,23,30,,,,2.079,1.237,1.672*05
$GPGSV,6,1,24,2,41,286,,3,80,149,52,4,68,31,,5,22,219,*44
$GPGSV,6,2,24,6,71,79,52,7,19,310,52,10,80,170,,12,31,294,*49
$GPGSV,6,3,24,13,48,276,52,16,60,37,51,17,53,132,,19,48,192,52*48
$GPGSV,6,4,24,21,14,54,52,23,45,230,52,25,12,319,,30,34,65,52*74
$GPGSV,6,5,24,101,36,146,,102,5,,40,103,5,,,104,17,112,40*7A
$GPGSV,6,6,24,108,43,47,,110,5,,28,113,5,,42,114,5,,34*4B
$GPRMC,053209.000,A,3959.9998,N,11601.1269,E,21.693,90.22,011211,,E,A*1E
$GPGGA,053210.000,3959.9999,N,11601.1347,E,1,9,1.237,-5.445,M,,M,,*54
$GPGLL,3959.9999,N,11601.1347,E,053210.000,A,A*5C
$GPGSA,A,3,3,6,7,13,16,19,21,23,30,,,,2.079,1.237,1.671*06
$GPGSV,6,1,24,2,41,286,,3,80,149,52,4,68,31,,5,22,219,*44
$GPGSV,6,2,24,6,71,79,52,7,19,310,52,10,80,170,,12,31,294,*49
$GPGSV,6,3,24,13,48,275,52,16,60,37,52,17,53,132,,19,48,192,52*48
$GPGSV,6,4,24,21,14,54,52,23,45,230,52,25,12,319,,30,34,65,52*74
$GPGSV,6,5,24,101,36,146,,102,5,,39,103,5,,,104,17,112,39*7A
$GPGSV,6,6,24,108,43,47,,110,5,,28,113,5,,33,114,5,,29*41
$GPRMC,053210.000,A,3959.9999,N,11601.1347,E,21.692,90.21,011211,,E,A*18
$GPGGA,053211.000,4000.0001,N,11601.1424,E,1,9,1.237,-5.405,M,,M,,*50
$GPGLL,4000.0001,N,11601.1424,E,053211.000,A,A*5C
$GPGSA,A,3,3,6,7,13,16,19,21,23,30,,,,2.079,1.237,1.671*06
$GPGSV,6,1,24,2,41,286,,3,80,149,52,4,68,31,,5,22,219,*44
$GPGSV,6,2,24,6,71,79,52,7,19,310,52,10,80,170,,12,31,294,*49
$GPGSV,6,3,24,13,48,275,52,16,60,37,52,17,53,132,,19,48,192,52*48
$GPGSV,6,4,24,21,14,54,52,23,45,230,52,25,12,319,,30,34,65,52*74
$GPGSV,6,5,24,101,36,146,,102,5,,39,104,17,112,39,105,5,,*7C
$GPGSV,6,6,24,108,43,47,,110,5,,28,113,5,,28,114,5,,28*4A
$GPRMC,053211.000,A,4000.0001,N,11601.1424,E,21.658,90.11,011211,,E,A*1D
$GPGGA,053212.000,4000.0001,N,11601.1501,E,1,9,1.237,-5.529,M,,M,,*5A
$GPGLL,4000.0001,N,11601.1501,E,053212.000,A,A*59
$GPGSA,A,3,3,6,7,13,16,19,21,23,30,,,,2.080,1.237,1.672*03
$GPGSV,7,1,25,2,41,286,,3,80,149,52,4,68,31,,5,22,219,*44
$GPGSV,7,2,25,6,71,79,52,7,19,310,52,10,80,170,,12,31,294,*49
$GPGSV,7,3,25,13,48,275,52,16,60,37,52,17,53,132,,19,48,192,52*48
$GPGSV,7,4,25,21,14,54,52,23,45,230,52,25,12,319,,30,34,65,52*74
$GPGSV,7,5,25,101,36,146,,102,5,,38,103,32,222,,104,17,112,39*7D
$GPGSV,7,6,25,105,5,,,108,43,47,,110,5,,28,113,5,,28*40
$GPGSV,7,7,25,114,5,,28*75
$GPRMC,053212.000,A,4000.0001,N,11601.1501,E,21.700,90.20,011211,,E,A*16
$GPGGA,053213.000,4000.0002,N,11601.1578,E,1,9,1.237,-5.596,M,,M,,*52
$GPGLL,4000.0002,N,11601.1578,E,053213.000,A,A*55
$GPGSA,A,3,3,6,7,13,16,19,21,23,30,,,,2.080,1.237,1.672*03
$GPGSV,7,1,25,2,41,286,,3,80,149,52,4,68,31,,5,22,219,*44
$GPGSV,7,2,25,6,71,79,52,7,19,310,52,10,80,170,,12,31,294,*49
$GPGSV,7,3,25,13,48,275,52,16,60,37,52,17,53,132,,19,48,192,52*48
$GPGSV,7,4,25,21,14,54,52,23,45,230,52,25,12,319,,30,34,65,52*74
$GPGSV,7,5,25,101,36,146,,102,5,,39,103,32,222,,104,17,112,39*7C
$GPGSV,7,6,25,105,5,,37,108,43,47,,110,5,,28,113,5,,27*4B
$GPGSV,7,7,25,114,5,,28*75
$GPRMC,053213.000,A,4000.0002,N,11601.1578,E,21.670,90.16,011211,,E,A*19
$GPGGA,053214.000,4000.0003,N,11601.1655,E,1,9,1.237,-5.730,M,,M,,*56
$GPGLL,4000.0003,N,11601.1655,E,053214.000,A,A*5F
$GPGSA,A,3,3,6,7,13,16,19,21,23,30,,,,2.080,1.237,1.672*03
$GPGSV,7,1,25,2,41,286,,3,80,149,51,4,68,31,,5,22,219,*47
$GPGSV,7,2,25,6,71,79,51,7,19,310,52,10,80,170,,12,31,294,*4A
$GPGSV,7,3,25,13,48,275,51,16,60,37,51,17,53,132,,19,48,192,51*4B
$GPGSV,7,4,25,21,14,54,52,23,45,230,52,25,12,319,,30,34,65,52*74
$GPGSV,7,5,25,101,36,146,,102,5,,39,103,32,222,,104,17,112,39*7C
$GPGSV,7,6,25,105,5,,39,108,43,47,,110,5,,28,113,5,,27*45
$GPGSV,7,7,25,114,5,,28*75
$GPRMC,053214.000,A,4000.0003,N,11601.1655,E,21.660,90.06,011211,,E,A*13
$GPGGA,053215.000,4000.0003,N,11601.1732,E,1,9,1.237,-5.889,M,,M,,*5A
$GPGLL,4000.0003,N,11601.1732,E,053215.000,A,A*5E
$GPGSA,A,3,3,6,7,13,16,19,21,23,30,,,,2.080,1.237,1.672*03
$GPGSV,7,1,25,2,41,286,,3,80,149,51,4,68,31,,5,22,219,*47
$GPGSV,7,2,25,6,71,79,51,7,19,310,52,10,80,170,,12,31,294,*4A
$GPGSV,7,3,25,13,48,275,51,16,60,37,51,17,53,132,,19,48,192,51*4B
$GPGSV,7,4,25,21,14,54,51,23,45,230,51,25,12,319,,30,34,65,51*77
$GPGSV,7,5,25,101,36,146,,102,5,,38,103,32,222,,104,17,112,39*7D
$GPGSV,7,6,25,105,5,,39,108,43,47,,110,5,,28,113,5,,27*45
$GPGSV,7,7,25,114,5,,28*75
$GPRMC,053215.000,A,4000.0003,N,11601.1732,E,21.685,90.15,011211,,E,A*1B
$GPGGA,053216.000,4000.0003,N,11601.1809,E,1,9,1.237,-6.193,M,,M,,*5F
$GPGLL,4000.0003,N,11601.1809,E,053216.000,A,A*5A
$GPGSA,A,3,3,6,7,13,16,19,21,23,30,,,,2.080,1.237,1.672*03
$GPGSV,7,1,25,2,41,286,,3,80,148,52,4,68,31,,5,22,219,*45
$GPGSV,7,2,25,6,71,79,52,7,19,310,52,10,80,170,,12,31,294,*49
$GPGSV,7,3,25,13,48,275,52,16,60,37,52,17,53,132,,19,48,192,52*48
$GPGSV,7,4,25,21,14,54,52,23,45,230,52,25,12,319,,30,34,65,52*74
$GPGSV,7,5,25,101,36,146,,102,5,,40,103,32,222,,104,17,112,40*7C
$GPGSV,7,6,25,105,5,,39,108,43,47,42,110,5,,28,113,5,,27*43
$GPGSV,7,7,25,114,5,,28*75
$GPRMC,053216.000,A,4000.0003,N,11601.1809,E,21.665,90.11,011211,,E,A*15
$GPGGA,053217.000,4000.0004,N,11601.1887,E,1,9,1.237,-6.360,M,,M,,*51
$GPGLL,4000.0004,N,11601.1887,E,053217.000,A,A*5A
$GPGSA,A,3,3,6,7,13,16,19,21,23,30,,,,2.080,1.237,1.672*03
$GPGSV,7,1,25,2,41,286,,3,80,148,52,4,68,31,,5,22,219,*45
$GPGSV,7,2,25,6,71,79,52,7,19,310,52,10,80,170,,12,31,294,*49
$GPGSV,7,3,25,13,48,275,52,16,60,37,52,17,53,132,,19,49,192,52*49
$GPGSV,7,4,25,21,14,54,52,23,45,230,52,25,12,319,,30,34,65,52*74
$GPGSV,7,5,25,101,36,146,,102,5,,40,103,32,222,,104,17,112,40*7C
$GPGSV,7,6,25,105,5,,39,108,43,47,42,110,5,,28,113,5,,27*43
$GPGSV,7,7,25,114,5,,28*75
$GPRMC,053217.000,A,4000.0004,N,11601.1887,E,21.684,90.14,011211,,E,A*1F
$GPGGA,053218.000,4000.0004,N,11601.1963,E,1,9,1.238,-6.453,M,,M,,*5D
$GPGLL,4000.0004,N,11601.1963,E,053218.000,A,A*5E
$GPGSA,A,3,3,6,7,13,16,19,21,23,30,,,,2.081,1.238,1.672*0D
$GPGSV,7,1,25,2,41,286,,3,80,148,52,4,68,31,,5,22,219,*45
$GPGSV,7,2,25,6,71,79,52,7,19,310,52,10,80,170,,12,31,294,*49
$GPGSV,7,3,25,13,48,275,52,16,60,37,52,17,53,132,,19,49,192,52*49
$GPGSV,7,4,25,21,14,54,52,23,45,230,52,25,12,319,,30,34,65,52*74
$GPGSV,7,5,25,101,36,146,,102,5,,40,103,32,222,,104,17,112,40*7C
$GPGSV,7,6,25,105,5,,39,108,43,47,34,110,5,,28,113,5,,27*42
$GPGSV,7,7,25,114,5,,28*75
$GPRMC,053218.000,A,4000.0004,N,11601.1963,E,21.685,90.13,011211,,E,A*1D
$GPGGA,053219.000,4000.0004,N,11601.2041,E,1,9,1.238,-6.657,M,,M,,*50
$GPGLL,4000.0004,N,11601.2041,E,053219.000,A,A*55
$GPGSA,A,3,3,6,7,13,16,19,21,23,30,,,,2.080,1.238,1.672*0C
$GPGSV,7,1,25,2,41,286,,3,80,148,52,4,68,31,,5,22,219,*45
$GPGSV,7,2,25,6,71,79,52,7,19,310,52,10,80,170,,12,31,294,*49
$GPGSV,7,3,25,13,48,275,52,16,60,37,52,17,53,132,,19,49,192,52*49
$GPGSV,7,4,25,21,14,54,52,23,45,230,52,25,12,319,,30,34,65,52*74
$GPGSV,7,5,25,101,36,146,,102,5,,39,103,32,222,,104,17,112,40*72
$GPGSV,7,6,25,105,5,,39,108,43,47,28,110,5,,28,113,5,,27*4F
$GPGSV,7,7,25,114,5,,28*75
$GPRMC,053219.000,A,4000.0004,N,11601.2041,E,21.656,90.08,011211,,E,A*12
$GPGGA,053220.000,4000.0003,N,11601.2118,E,1,9,1.238,-6.880,M,,M,,*54
$GPGLL,4000.0003,N,11601.2118,E,053220.000,A,A*55
$GPGSA,A,3,3,6,7,13,16,19,21,23,30,,,,2.080,1.238,1.672*0C
$GPGSV,7,1,25,2,41,286,,3,80,148,52,4,68,31,,5,22,219,*45
$GPGSV,7,2,25,6,71,79,52,7,19,310,52,10,80,170,,12,31,294,*49
$GPGSV,7,3,25,13,48,275,52,16,60,37,52,17,53,132,,19,49,192,52*49
$GPGSV,7,4,25,21,14,54,52,23,45,230,52,25,12,319,,30,34,65,52*74
$GPGSV,7,5,25,101,36,146,,102,5,,38,103,32,222,,104,17,112,40*73
$GPGSV,7,6,25,105,5,,39,108,43,47,27,110,5,,28,113,5,,27*40
$GPGSV,7,7,25,114,5,,28*75
$GPRMC,053220.000,A,4000.0003,N,11601.2118,E,21.663,90.07,011211,,E,A*1B
$GPGGA,053221.000,4000.0002,N,11601.2196,E,1,9,1.238,-7.096,M,,M,,*5C
$GPGLL,4000.0002,N,11601.2196,E,053221.000,A,A*53
$GPGSA,A,3,3,6,7,13,16,19,21,23,30,,,,2.081,1.238,1.673*0C
$GPGSV,7,1,25,2,41,286,,3,80,148,52,4,68,31,,5,23,219,*44
$GPGSV,7,2,25,6,71,79,52,7,19,310,52,10,80,170,,12,31,294,*49
$GPGSV,7,3,25,13,48,275,52,16,60,37,52,17,53,132,,19,49,192,52*49
$GPGSV,7,4,25,21,14,54,52,23,45,230,52,25,12,319,,30,34,65,52*74
$GPGSV,7,5,25,101,36,146,,102,5,,40,103,32,222,,104,17,112,40*7C
$GPGSV,7,6,25,105,5,,39,108,43,47,27,110,5,,28,113,5,,27*40
$GPGSV,7,7,25,114,5,,28*75
$GPRMC,053221.000,A,4000.0002,N,11601.2196,E,21.681,90.12,011211,,E,A*15
$GPGGA,053222.000,4000.0002,N,11601.2275,E,1,9,1.238,-7.295,M,,M,,*50
$GPGLL,4000.0002,N,11601.2275,E,053222.000,A,A*5E
$GPGSA,A,3,3,6,7,13,16,19,21,23,30,,,,2.081,1.238,1.673*0C
$GPGSV,7,1,25,2,41,286,,3,80,148,52,4,68,31,,5,23,219,*44
$GPGSV,7,2,25,6,71,78,52,7,19,310,52,10,80,170,,12,31,294,*48
$GPGSV,7,3,25,13,48,275,52,16,60,37,52,17,53,132,,19,49,192,52*49
$GPGSV,7,4,25,21,14,54,52,23,45,230,52,25,12,319,,30,34,65,52*74
$GPGSV,7,5,25,101,36,146,,102,5,,38,103,32,222,,104,26,123,39*7D
$GPGSV,7,6,25,105,5,,39,108,43,47,27,110,5,,28,113,5,,27*40
$GPGSV,7,7,25,114,5,,28*75
$GPRMC,053222.000,A,4000.0002,N,11601.2275,E,21.668,90.08,011211,,E,A*14
$GPGGA,053223.000,4000.0001,N,11601.2353,E,1,9,1.238,-7.574,M,,M,,*5F
$GPGLL,4000.0001,N,11601.2353,E,053223.000,A,A*59
$GPGSA,A,3,3,6,7,13,16,19,21,23,30,,,,2.081,1.238,1.673*0C
$GPGSV,7,1,25,2,41,286,,3,80,148,52,4,68,31,,5,23,219,*44
$GPGSV,7,2,25,6,71,78,52,7,19,310,52,10,80,170,,12,31,294,*48
$GPGSV,7,3,25,13,48,275,52,16,60,37,52,17,53,132,,19,49,192,52*49
$GPGSV,7,4,25,21,14,54,52,23,45,230,52,25,12,319,,30,34,65,52*74
$GPGSV,7,5,25,101,36,146,,102,5,,39,103,32,222,,104,26,123,39*7C
$GPGSV,7,6,25,105,5,,39,108,43,47,27,110,5,,28,113,5,,27*40
$GPGSV,7,7,25,114,5,,28*75
$GPRMC,053223.000,A,4000.0001,N,11601.2353,E,21.668,90.08,011211,,E,A*13
$GPGGA,053224.000,3959.9999,N,11601.2431,E,1,9,1.238,-7.810,M,,M,,*57
$GPGLL,3959.9999,N,11601.2431,E,053224.000,A,A*5E
$GPGSA,A,3,3,6,7,13,16,19,21,23,30,,,,2.081,1.238,1.673*0C
$GPGSV,7,1,25,2,41,286,,3,80,148,52,4,68,31,,5,23,219,*44
$GPGSV,7,2,25,6,71,78,52,7,19,310,52,10,80,170,,12,31,294,*48
$GPGSV,7,3,25,13,48,275,52,16,60,37,52,17,53,132,,19,49,192,52*49
$GPGSV,7,4,25,21,14,54,52,23,45,230,52,25,12,319,,30,34,65,52*74
$GPGSV,7,5,25,101,36,146,,102,5,,39,103,32,222,,104,26,123,39*7C
$GPGSV,7,6,25,105,5,,39,108,43,47,26,110,5,,28,113,5,,27*41
$GPGSV,7,7,25,114,5,,28*75
$GPRMC,053224.000,A,3959.9999,N,11601.2431,E,21.681,90.17,011211,,E,A*1D
$GPGGA,053225.000,3959.9999,N,11601.2510,E,1,9,1.238,-7.950,M,,M,,*51
$GPGLL,3959.9999,N,11601.2510,E,053225.000,A,A*5D
$GPGSA,A,3,3,6,7,13,16,19,21,23,30,,,,2.081,1.238,1.673*0C
$GPGSV,7,1,25,2,41,286,,3,80,148,52,4,68,31,,5,23,219,*44
$GPGSV,7,2,25,6,71,78,52,7,19,310,52,10,80,170,,12,31,294,*48
$GPGSV,7,3,25,13,48,275,52,16,60,37,52,17,53,132,,19,49,192,52*49
$GPGSV,7,4,25,21,14,54,52,23,45,230,52,25,12,319,,30,34,65,52*74
$GPGSV,7,5,25,101,36,146,,102,5,,39,103,32,222,,104,26,123,39*7C
$GPGSV,7,6,25,105,5,,39,108,43,47,26,110,5,,28,113,5,,27*41
$GPGSV,7,7,25,114,5,,28*75
$GPRMC,053225.000,A,3959.9999,N,11601.2510,E,21.673,90.14,011211,,E,A*10
$GPGGA,053226.000,3959.9999,N,11601.2588,E,1,9,1.238,-8.010,M,,M,,*51
$GPGLL,3959.9999,N,11601.2588,E,053226.000,A,A*5F
$GPGSA,A,3,3,6,7,13,16,19,21,23,30,,,,2.081,1.238,1.673*0C
$GPGSV,7,1,25,2,41,286,,3,80,148,51,4,68,31,,5,23,219,*47
$GPGSV,7,2,25,6,71,78,51,7,19,310,51,10,80,170,,12,31,294,*48
$GPGSV,7,3,25,13,48,275,51,16,60,37,51,17,53,132,,19,49,192,51*4A
$GPGSV,7,4,25,21,14,54,52,23,45,230,51,25,12,319,,30,34,65,51*74
$GPGSV,7,5,25,101,36,146,,102,5,,39,103,32,222,,104,26,123,40*72
$GPGSV,7,6,25,105,5,,39,108,43,47,26,110,5,,28,113,5,,27*41
$GPGSV,7,7,25,114,5,,28*75
$GPRMC,053226.000,A,3959.9999,N,11601.2588,E,21.678,90.10,011211,,E,A*1D
$GPGGA,053227.000,3959.9999,N,11601.2666,E,1,9,1.238,-8.084,M,,M,,*5E
$GPGLL,3959.9999,N,11601.2666,E,053227.000,A,A*5D
$GPGSA,A,3,3,6,7,13,16,19,21,23,30,,,,2.082,1.238,1.673*0F
$GPGSV,7,1,25,2,41,286,,3,80,148,52,4,68,31,,5,23,219,*44
$GPGSV,7,2,25,6,71,78,52,7,19,310,52,10,80,170,,12,31,294,*48
$GPGSV,7,3,25,13,48,275,52,16,60,37,52,17,53,132,,19,49,192,52*49
$GPGSV,7,4,25,21,14,54,52,23,45,230,52,25,12,319,,30,34,65,52*74
$GPGSV,7,5,25,101,36,146,,102,5,,39,103,32,222,,104,26,123,39*7C
$GPGSV,7,6,25,105,5,,39,108,43,47,26,110,5,,28,113,5,,27*41
$GPGSV,7,7,25,114,5,,28*75
$GPRMC,053227.000,A,3959.9999,N,11601.2666,E,21.673,90.11,011211,,E,A*15
$GPGGA,053228.000,3959.9999,N,11601.2745,E,1,9,1.238,-8.209,M,,M,,*56
$GPGLL,3959.9999,N,11601.2745,E,053228.000,A,A*52
$GPGSA,A,3,3,6,7,13,16,19,21,23,30,,,,2.082,1.238,1.673*0F
$GPGSV,7,1,25,2,41,286,,3,80,148,51,4,68,31,,5,23,219,*47
$GPGSV,7,2,25,6,71,78,51,7,19,310,52,10,80,170,,12,31,294,*4B
$GPGSV,7,3,25,13,48,275,51,16,60,37,51,17,53,132,,19,49,192,51*4A
$GPGSV,7,4,25,21,14,54,52,23,45,230,51,25,12,319,,30,34,65,51*74
$GPGSV,7,5,25,101,36,146,,102,5,,39,103,32,222,,104,26,123,39*7C
$GPGSV,7,6,25,105,5,,39,108,43,47,26,110,5,,28,113,5,,27*41
$GPGSV,7,7,25,114,5,,28*75
$GPRMC,053228.000,A,3959.9999,N,11601.2745,E,21.677,90.07,011211,,E,A*19
$GPGGA,053229.000,3959.9999,N,11601.2823,E,1,9,1.238,-8.202,M,,M,,*53
$GPGLL,3959.9999,N,11601.2823,E,053229.000,A,A*5C
$GPGSA,A,3,3,6,7,13,16,19,21,23,30,,,,2.082,1.238,1.673*0F
$GPGSV,7,1,25,2,41,286,,3,80,148,51,4,68,31,,5,23,219,*47
$GPGSV,7,2,25,6,71,78,52,7,19,310,52,10,80,170,,12,31,294,*48
$GPGSV,7,3,25,13,48,275,52,16,60,37,51,17,53,132,,19,49,192,52*4A
$GPGSV,7,4,25,21,14,54,52,23,45,230,52,25,12,319,,30,34,65,52*74
$GPGSV,7,5,25,101,36,146,,102,5,,39,103,32,222,,104,26,123,39*7C
$GPGSV,7,6,25,105,5,,38,108,43,47,26,110,5,,28,113,5,,27*40
$GPGSV,7,7,25,114,5,,28*75
$GPRMC,053229.000,A,3959.9999,N,11601.2823,E,21.663,90.08,011211,,E,A*1D
$GPGGA,053230.000,4000.0000,N,11601.2901,E,1,9,1.238,-8.203,M,,M,,*59
$GPGLL,4000.0000,N,11601.2901,E,053230.000,A,A*57
$GPGSA,A,3,3,6,7,13,16,19,21,23,30,,,,2.082,1.238,1.674*08
$GPGSV,7,1,25,2,41,286,,3,80,148,52,4,68,31,,5,23,219,*44
$GPGSV,7,2,25,6,71,78,51,7,19,310,52,10,80,170,,12,31,294,*4B
$GPGSV,7,3,25,13,48,275,51,16,60,37,52,17,53,132,,19,49,192,51*49
$GPGSV,7,4,25,21,14,54,52,23,45,230,51,25,12,319,,30,34,65,51*74
$GPGSV,7,5,25,101,36,146,,102,5,,39,103,32,222,,104,26,123,39*7C
$GPGSV,7,6,25,105,5,,38,108,43,47,26,110,5,,28,113,5,,27*40
$GPGSV,7,7,25,114,5,,28*75
$GPRMC,053230.000,A,4000.0000,N,11601.2901,E,21.656,90.05,011211,,E,A*1D
$GPGGA,053231.000,4000.0000,N,11601.2979,E,1,9,1.238,-8.237,M,,M,,*50
$GPGLL,4000.0000,N,11601.2979,E,053231.000,A,A*59
$GPGSA,A,3,3,6,7,13,16,19,21,23,30,,,,2.082,1.238,1.674*08
$GPGSV,7,1,25,2,41,286,,3,80,148,51,4,68,31,,5,23,219,*47
$GPGSV,7,2,25,6,71,78,51,7,19,310,52,10,80,170,,12,31,294,*4B
$GPGSV,7,3,25,13,48,275,52,16,60,37,51,17,53,132,,19,49,192,52*4A
$GPGSV,7,4,25,21,14,54,52,23,45,230,52,25,12,319,,30,34,65,52*74
$GPGSV,7,5,25,101,36,146,,102,5,,39,103,32,222,,104,26,123,39*7C
$GPGSV,7,6,25,105,5,,39,108,43,47,26,110,5,,28,113,5,,27*41
$GPGSV,7,7,25,114,5,,28*75
$GPRMC,053231.000,A,4000.0000,N,11601.2979,E,21.673,90.09,011211,,E,A*18
$GPGGA,053232.000,4000.0001,N,11601.3057,E,1,9,1.238,-8.251,M,,M,,*56
$GPGLL,4000.0001,N,11601.3057,E,053232.000,A,A*5F
$GPGSA,A,3,3,6,7,13,16,19,21,23,30,,,,2.082,1.238,1.674*08
$GPGSV,7,1,26,2,41,286,,3,80,148,52,4,68,31,,5,23,219,*47
$GPGSV,7,2,26,6,71,78,52,7,19,310,52,10,80,170,,12,31,294,*4B
$GPGSV,7,3,26,13,48,275,52,16,60,37,52,17,53,132,,19,49,192,52*4A
$GPGSV,7,4,26,21,14,54,52,23,45,230,52,25,12,319,,30,34,65,52*77
$GPGSV,7,5,26,101,36,146,,102,5,,39,103,32,222,,104,26,123,39*7F
$GPGSV,7,6,26,105,5,,39,106,79,273,,108,43,47,26,110,5,,28*4E
$GPGSV,7,7,26,113,5,,27,114,5,,28*75
$GPRMC,053232.000,A,4000.0001,N,11601.3057,E,21.674,90.09,011211,,E,A*19
$GPGGA,053233.000,4000.0001,N,11601.3135,E,1,9,1.239,-8.282,M,,M,,*5D
$GPGLL,4000.0001,N,11601.3135,E,053233.000,A,A*5B
$GPGSA,A,3,3,6,7,13,16,19,21,23,30,,,,2.082,1.239,1.674*09
$GPGSV,7,1,26,2,41,286,,3,80,148,51,4,68,31,,5,23,219,*44
$GPGSV,7,2,26,6,71,78,51,7,19,310,51,10,80,170,,12,31,294,*4B
$GPGSV,7,3,26,13,48,275,51,16,60,37,51,17,53,132,,19,49,192,51*49
$GPGSV,7,4,26,21,14,54,51,23,45,230,51,25,12,319,,30,34,65,51*74
$GPGSV,7,5,26,101,36,146,,102,5,,39,103,32,222,,104,26,123,39*7F
$GPGSV,7,6,26,105,5,,39,106,79,273,,108,43,47,27,110,5,,28*4F
$GPGSV,7,7,26,113,5,,27,114,5,,28*75
$GPRMC,053233.000,A,4000.0001,N,11601.3135,E,21.653,90.04,011211,,E,A*15
$GPGGA,053234.000,4000.0001,N,11601.3214,E,1,9,1.239,-8.343,M,,M,,*56
$GPGLL,4000.0001,N,11601.3214,E,053234.000,A,A*5C
$GPGSA,A,3,3,6,7,13,16,19,21,23,30,,,,2.082,1.239,1.674*09
$GPGSV,7,1,26,2,41,286,,3,80,148,50,4,68,31,,5,23,219,*45
$GPGSV,7,2,26,6,71,78,50,7,19,310,51,10,80,170,,12,31,294,*4A
$GPGSV,7,3,26,13,48,275,51,16,60,37,50,17,53,132,,19,49,192,51*48
$GPGSV,7,4,26,21,14,54,51,23,45,230,51,25,12,319,,30,34,65,51*74
$GPGSV,7,5,26,101,36,146,,102,5,,39,103,32,222,,104,26,123,39*7F
$GPGSV,7,6,26,105,5,,39,106,79,273,,108,43,47,27,110,5,,28*4F
$GPGSV,7,7,26,113,5,,27,114,5,,28*75
$GPRMC,053234.000,A,4000.0001,N,11601.3214,E,21.620,90.00,011211,,E,A*12
$GPGGA,053235.000,4000.0002,N,11601.3292,E,1,9,1.239,-8.347,M,,M,,*5E
$GPGLL,4000.0002,N,11601.3292,E,053235.000,A,A*50
$GPGSA,A,3,3,6,7,13,16,19,21,23,30,,,,2.082,1.239,1.674*09
$GPGSV,7,1,26,2,41,286,,3,80,148,50,4,68,31,,5,23,219,*45
$GPGSV,7,2,26,6,71,78,51,7,19,310,51,10,80,170,,12,31,294,*4B
$GPGSV,7,3,26,13,48,275,51,16,60,37,50,17,53,132,,19,49,192,51*48
$GPGSV,7,4,26,21,14,54,51,23,45,230,51,25,12,319,,30,34,65,51*74
$GPGSV,7,5,26,101,36,146,,102,5,,39,103,32,222,,104,26,123,39*7F
$GPGSV,7,6,26,105,5,,39,106,79,273,,108,43,47,27,110,5,,28*4F
$GPGSV,7,7,26,113,5,,27,114,5,,28*75
$GPRMC,053235.000,A,4000.0002,N,11601.3292,E,21.660,90.06,011211,,E,A*1C
$GPGGA,053236.000,4000.0002,N,11601.3370,E,1,9,1.239,-8.341,M,,M,,*56
$GPGLL,4000.0002,N,11601.3370,E,053236.000,A,A*5E
$GPGSA,A,3,3,6,7,13,16,19,21,23,30,,,,2.083,1.239,1.674*08
$GPGSV,7,1,26,2,41,286,,3,80,148,51,4,68,31,,5,23,219,*44
$GPGSV,7,2,26,6,71,78,51,7,19,310,50,10,80,170,,12,31,294,*4A
$GPGSV,7,3,26,13,48,275,50,16,60,37,51,17,53,132,,19,49,192,50*49
$GPGSV,7,4,26,21,14,54,51,23,45,230,50,25,12,319,,30,34,65,50*74
$GPGSV,7,5,26,101,36,146,,102,5,,39,103,32,222,,104,26,123,39*7F
$GPGSV,7,6,26,105,5,,39,106,79,273,,108,43,47,27,110,5,,28*4F
$GPGSV,7,7,26,113,5,,27,114,5,,28*75
$GPRMC,053236.000,A,4000.0002,N,11601.3370,E,21.691,90.12,011211,,E,A*19
$GPGGA,053237.000,4000.0001,N,11601.3448,E,1,9,1.239,-8.274,M,,M,,*5F
$GPGLL,4000.0001,N,11601.3448,E,053237.000,A,A*50
$GPGSA,A,3,3,6,7,13,16,19,21,23,30,,,,2.083,1.239,1.674*08
$GPGSV,7,1,26,2,41,286,,3,80,148,51,4,68,31,,5,23,219,*44
$GPGSV,7,2,26,6,71,78,51,7,19,310,50,10,80,170,,12,31,294,*4A
$GPGSV,7,3,26,13,48,275,49,16,60,37,51,17,53,132,,19,49,192,49*49
$GPGSV,7,4,26,21,14,54,51,23,45,230,49,25,12,319,,30,34,65,50*7C
$GPGSV,7,5,26,101,36,146,,102,5,,39,103,32,222,,104,26,123,39*7F
$GPGSV,7,6,26,105,5,,39,106,79,273,,108,43,47,27,110,5,,29*4E
$GPGSV,7,7,26,113,5,,27,114,5,,28*75
$GPRMC,053237.000,A,4000.0001,N,11601.3448,E,21.647,90.23,011211,,E,A*1E
$GPGGA,053238.000,4000.0002,N,11601.3527,E,1,9,1.239,-8.137,M,,M,,*5F
$GPGLL,4000.0002,N,11601.3527,E,053238.000,A,A*54
$GPGSA,A,3,3,6,7,13,16,19,21,23,30,,,,2.083,1.239,1.674*08
$GPGSV,7,1,26,2,41,286,,3,80,148,52,4,68,31,,5,23,219,*47
$GPGSV,7,2,26,6,71,78,52,7,19,310,52,10,80,170,,12,31,294,*4B
$GPGSV,7,3,26,13,48,275,52,16,60,37,52,17,53,132,,19,49,192,52*4A
$GPGSV,7,4,26,21,14,54,52,23,45,230,52,25,12,319,,30,34,65,52*77
$GPGSV,7,5,26,101,36,146,,102,5,,38,103,32,222,,104,26,123,39*7E
$GPGSV,7,6,26,105,5,,39,106,79,273,,108,43,47,27,110,5,,28*4F
$GPGSV,7,7,26,113,5,,27,114,5,,28*75
$GPRMC,053238.000,A,4000.0002,N,11601.3527,E,21.675,90.10,011211,,E,A*1B
$GPGGA,053239.000,4000.0002,N,11601.3605,E,1,9,1.239,-8.087,M,,M,,*57
$GPGLL,4000.0002,N,11601.3605,E,053239.000,A,A*56
$GPGSA,A,3,3,6,7,13,16,19,21,23,30,,,,2.083,1.239,1.675*09
$GPGSV,7,1,26,2,41,286,,3,80,148,52,4,68,31,,5,23,219,*47
$GPGSV,7,2,26,6,71,78,52,7,19,310,52,10,80,170,,12,31,294,*4B
$GPGSV,7,3,26,13,48,275,52,16,60,37,52,17,53,132,,19,49,192,52*4A
$GPGSV,7,4,26,21,14,54,52,23,45,230,52,25,12,319,,30,34,65,52*77
$GPGSV,7,5,26,101,36,146,,102,5,,39,103,32,222,,104,26,123,39*7F
$GPGSV,7,6,26,105,5,,39,106,79,273,,108,43,47,27,110,5,,28*4F
$GPGSV,7,7,26,113,5,,27,114,5,,28*75
$GPRMC,053239.000,A,4000.0002,N,11601.3605,E,21.659,90.06,011211,,E,A*10
$GPGGA,053240.000,4000.0002,N,11601.3683,E,1,9,1.239,-8.093,M,,M,,*52
$GPGLL,4000.0002,N,11601.3683,E,053240.000,A,A*56
$GPGSA,A,3,3,6,7,13,16,19,21,23,30,,,,2.083,1.239,1.674*08
$GPGSV,7,1,26,2,41,286,,3,80,147,52,4,68,31,,5,23,219,*48
$GPGSV,7,2,26,6,71,78,52,7,19,310,52,10,80,170,,12,31,294,*4B
$GPGSV,7,3,26,13,48,275,52,16,60,37,52,17,53,132,,19,49,192,52*4A
$GPGSV,7,4,26,21,14,54,52,23,45,230,52,25,12,319,,30,34,65,52*77
$GPGSV,7,5,26,101,36,146,,102,5,,38,103,32,222,,104,26,123,39*7E
$GPGSV,7,6,26,105,5,,39,106,79,273,,108,43,47,27,110,5,,28*4F
$GPGSV,7,7,26,113,5,,27,114,5,,28*75
$GPRMC,053240.000,A,4000.0002,N,11601.3683,E,21.676,90.10,011211,,E,A*1A
$GPGGA,053241.000,4000.0002,N,11601.3761,E,1,9,1.239,-8.079,M,,M,,*5A
$GPGLL,4000.0002,N,11601.3761,E,053241.000,A,A*5A
$GPGSA,A,3,3,6,7,13,16,19,21,23,30,,,,2.083,1.239,1.674*08
$GPGSV,7,1,26,2,41,286,,3,80,147,52,4,68,31,,5,23,219,*48
$GPGSV,7,2,26,6,71,78,52,7,19,310,52,10,80,170,,12,31,294,*4B
$GPGSV,7,3,26,13,48,275,52,16,60,37,52,17,53,132,,19,49,192,52*4A
$GPGSV,7,4,26,21,14,54,52,23,45,230,52,25,12,319,,30,34,65,52*77
$GPGSV,7,5,26,101,36,146,,102,5,,38,103,32,222,,104,26,123,39*7E
$GPGSV,7,6,26,105,5,,39,106,79,273,,108,43,47,27,110,5,,28*4F
$GPGSV,7,7,26,113,5,,27,114,5,,28*75
$GPRMC,053241.000,A,4000.0002,N,11601.3761,E,21.661,90.05,011211,,E,A*14
$GPGGA,053242.000,4000.0002,N,11601.3839,E,1,9,1.239,-8.070,M,,M,,*52
$GPGLL,4000.0002,N,11601.3839,E,053242.000,A,A*5B
$GPGSA,A,3,3,6,7,13,16,19,21,23,30,,,,2.083,1.239,1.675*09
$GPGSV,7,1,26,2,41,286,,3,80,147,52,4,68,31,,5,23,219,*48
$GPGSV,7,2,26,6,71,78,52,7,19,310,52,10,80,170,,12,31,294,*4B
$GPGSV,7,3,26,13,48,275,51,16,60,37,52,17,53,132,,19,49,192,51*4A
$GPGSV,7,4,26,21,14,54,52,23,45,230,51,25,12,319,,30,34,65,51*77
$GPGSV,7,5,26,101,36,146,,102,5,,39,103,32,222,,104,26,123,39*7F
$GPGSV,7,6,26,105,5,,38,106,79,273,,108,43,47,27,110,5,,28*4E
$GPGSV,7,7,26,113,5,,27,114,5,,28*75
$GPRMC,053242.000,A,4000.0002,N,11601.3839,E,21.665,90.04,011211,,E,A*10
$GPGGA,053243.000,4000.0002,N,11601.3917,E,1,9,1.239,-8.086,M,,M,,*57
$GPGLL,4000.0002,N,11601.3917,E,053243.000,A,A*57
$GPGSA,A,3,3,6,7,13,16,19,21,23,30,,,,2.083,1.239,1.675*09
$GPGSV,7,1,26,2,41,286,,3,80,147,51,4,68,31,,5,23,219,*4B
$GPGSV,7,2,26,6,71,78,51,7,19,310,52,10,80,170,,12,31,294,*48
$GPGSV,7,3,26,13,48,275,52,16,60,37,51,17,53,132,,19,49,192,52*49
$GPGSV,7,4,26,21,14,54,52,23,45,230,52,25,12,319,,30,34,65,52*77
$GPGSV,7,5,26,101,36,146,,102,5,,39,103,32,222,,104,26,123,39*7F
$GPGSV,7,6,26,105,5,,39,106,79,273,,108,43,47,26,110,5,,28*4E
$GPGSV,7,7,26,113,5,,27,114,5,,28*75
$GPRMC,053243.000,A,4000.0002,N,11601.3917,E,21.679,90.08,011211,,E,A*1D
$GPGGA,053244.000,4000.0002,N,11601.3995,E,1,9,1.239,-8.097,M,,M,,*5A
$GPGLL,4000.0002,N,11601.3995,E,053244.000,A,A*5A
$GPGSA,A,3,3,6,7,13,16,19,21,23,30,,,,2.083,1.239,1.675*09
$GPGSV,7,1,26,2,41,286,,3,80,147,52,4,68,31,,5,23,219,*48
$GPGSV,7,2,26,6,71,78,52,7,19,310,52,10,80,170,,12,31,294,*4B
$GPGSV,7,3,26,13,48,275,52,16,60,37,52,17,53,132,,19,49,192,52*4A
$GPGSV,7,4,26,21,14,54,52,23,45,230,52,25,12,319,,30,34,65,52*77
$GPGSV,7,5,26,101,36,146,,102,5,,39,103,32,222,,104,26,123,40*71
$GPGSV,7,6,26,105,5,,39,106,79,273,,108,43,47,26,110,5,,28*4E
$GPGSV,7,7,26,113,5,,27,114,5,,28*75
$GPRMC,053244.000,A,4000.0002,N,11601.3995,E,21.669,90.05,011211,,E,A*1C
$GPGGA,053245.000,4000.0003,N,11601.4073,E,1,9,1.239,-8.134,M,,M,,*54
$GPGLL,4000.0003,N,11601.4073,E,053245.000,A,A*5C
$GPGSA,A,3,3,6,7,13,16,19,21,23,30,,,,2.084,1.239,1.675*0E
$GPGSV,7,1,26,2,41,286,,3,80,147,52,4,68,31,,5,23,219,*48
$GPGSV,7,2,26,6,71,78,52,7,19,310,52,10,80,170,,12,31,294,*4B
$GPGSV,7,3,26,13,48,275,52,16,60,37,52,17,53,132,,19,49,192,52*4A
$GPGSV,7,4,26,21,14,54,52,23,45,230,52,25,12,319,,30,34,65,52*77
$GPGSV,7,5,26,101,36,146,,102,5,,38,103,32,222,,104,26,123,39*7E
$GPGSV,7,6,26,105,5,,38,106,79,273,,108,43,47,26,110,5,,28*4F
$GPGSV,7,7,26,113,5,,27,114,5,,28*75
$GPRMC,053245.000,A,4000.0003,N,11601.4073,E,21.675,90.07,011211,,E,A*15
$GPGGA,053246.000,4000.0003,N,11601.4151,E,1,9,1.239,-8.172,M,,M,,*54
$GPGLL,4000.0003,N,11601.4151,E,053246.000,A,A*5E
$GPGSA,A,3,3,6,7,13,16,19,21,23,30,,,,2.084,1.239,1.675*0E
$GPGSV,7,1,26,2,41,286,,3,80,147,52,4,68,31,,5,23,219,*48
$GPGSV,7,2,26,6,71,78,52,7,19,310,52,10,80,170,,12,31,294,*4B
$GPGSV,7,3,26,13,48,275,52,16,60,37,52,17,53,132,,19,49,192,52*4A
$GPGSV,7,4,26,21,14,54,52,23,45,230,52,25,12,319,,30,34,65,52*77
$GPGSV,7,5,26,101,36,146,,102,5,,38,103,32,222,,104,26,123,38*7F
$GPGSV,7,6,26,105,5,,38,106,79,273,,108,43,47,26,110,5,,28*4F
$GPGSV,7,7,26,113,5,,27,114,5,,28*75
$GPRMC,053246.000,A,4000.0003,N,11601.4151,E,21.676,90.08,011211,,E,A*1B
$GPGGA,053247.000,4000.0003,N,11601.4229,E,1,9,1.239,-8.193,M,,M,,*56
$GPGLL,4000.0003,N,11601.4229,E,053247.000,A,A*53
$GPGSA,A,3,3,6,7,13,16,19,21,23,30,,,,2.084,1.239,1.675*0E
$GPGSV,7,1,26,2,41,286,,3,80,147,52,4,68,31,,5,23,219,*48
$GPGSV,7,2,26,6,71,78,52,7,19,310,52,10,80,170,,12,31,294,*4B
$GPGSV,7,3,26,13,48,275,52,16,60,37,52,17,53,132,,19,49,192,52*4A
$GPGSV,7,4,26,21,14,54,52,23,44,230,52,25,12,319,,30,34,65,52*76
$GPGSV,7,5,26,101,36,146,,102,5,,39,103,32,222,,104,26,123,39*7F
$GPGSV,7,6,26,105,5,,38,106,79,273,,108,43,47,26,110,5,,28*4F
$GPGSV,7,7,26,113,5,,27,114,5,,28*75
$GPRMC,053247.000,A,4000.0003,N,11601.4229,E,21.659,90.06,011211,,E,A*15
$GPGGA,053248.000,4000.0003,N,11601.4307,E,1,9,1.240,-8.220,M,,M,,*51
$GPGLL,4000.0003,N,11601.4307,E,053248.000,A,A*51
$GPGSA,A,3,3,6,7,13,16,19,21,23,30,,,,2.084,1.240,1.675*00
$GPGSV,7,1,26,2,41,286,,3,80,147,52,4,68,31,,5,23,219,*48
$GPGSV,7,2,26,6,71,78,52,7,19,310,52,10,80,170,,12,31,294,*4B
$GPGSV,7,3,26,13,48,275,52,16,60,37,52,17,53,132,,19,49,192,52*4A
$GPGSV,7,4,26,21,14,54,52,23,44,230,52,25,12,319,,30,34,65,52*76
$GPGSV,7,5,26,101,36,146,,102,5,,38,103,32,222,,104,26,123,39*7E
$GPGSV,7,6,26,105,5,,39,106,79,273,,108,43,47,26,110,5,,28*4E
$GPGSV,7,7,26,113,5,,27,114,5,,28*75
$GPRMC,053248.000,A,4000.0003,N,11601.4307,E,21.657,90.04,011211,,E,A*1B
$GPGGA,053249.000,4000.0003,N,11601.4385,E,1,9,1.240,-8.250,M,,M,,*5D
$GPGLL,4000.0003,N,11601.4385,E,053249.000,A,A*5A
$GPGSA,A,3,3,6,7,13,16,19,21,23,30,,,,2.084,1.240,1.675*00
$GPGSV,7,1,26,2,41,286,,3,80,147,52,4,68,31,,5,23,219,*48
$GPGSV,7,2,26,6,71,78,52,7,19,310,52,10,80,170,,12,31,294,*4B
$GPGSV,7,3,26,13,48,275,52,16,60,37,52,17,53,132,,19,49,192,52*4A
$GPGSV,7,4,26,21,14,54,52,23,44,230,52,25,12,319,,30,34,65,52*76
$GPGSV,7,5,26,101,36,146,,102,5,,39,103,32,222,,104,26,123,39*7F
$GPGSV,7,6,26,105,5,,38,106,79,273,,108,43,47,26,110,5,,28*4F
$GPGSV,7,7,26,113,5,,27,114,5,,28*75
$GPRMC,053249.000,A,4000.0003,N,11601.4385,E,21.666,90.05,011211,,E,A*13
$GPGGA,053250.000,4000.0003,N,11601.4463,E,1,9,1.239,-8.268,M,,M,,*5F
$GPGLL,4000.0003,N,11601.4463,E,053250.000,A,A*5D
$GPGSA,A,3,3,6,7,13,16,19,21,23,30,,,,2.084,1.239,1.675*0E
$GPGSV,7,1,26,2,41,286,,3,80,147,52,4,68,31,,5,23,219,*48
$GPGSV,7,2,26,6,71,78,52,7,19,310,52,10,80,170,,12,31,294,*4B
$GPGSV,7,3,26,13,48,275,52,16,60,37,52,17,53,132,,19,49,192,52*4A
$GPGSV,7,4,26,21,14,54,52,23,44,230,52,25,12,319,,30,34,65,52*76
$GPGSV,7,5,26,101,36,146,,102,5,,39,103,32,222,,104,26,123,39*7F
$GPGSV,7,6,26,105,5,,38,106,79,273,,108,43,47,26,110,5,,28*4F
$GPGSV,7,7,26,113,5,,27,114,5,,28*75
$GPRMC,053250.000,A,4000.0003,N,11601.4463,E,21.657,90.07,011211,,E,A*14
$GPGGA,053251.000,4000.0003,N,11601.4541,E,1,9,1.240,-8.316,M,,M,,*59
$GPGLL,4000.0003,N,11601.4541,E,053251.000,A,A*5D
$GPGSA,A,3,3,6,7,13,16,19,21,23,30,,,,2.084,1.240,1.676*03
$GPGSV,7,1,26,2,41,286,,3,80,147,52,4,68,31,,5,23,219,*48
$GPGSV,7,2,26,6,71,78,52,7,19,310,52,10,80,169,,12,31,294,*43
$GPGSV,7,3,26,13,48,275,52,16,60,37,52,17,53,132,,19,49,192,52*4A
$GPGSV,7,4,26,21,14,54,52,23,44,230,52,25,12,319,,30,34,65,52*76
$GPGSV,7,5,26,101,36,146,,102,5,,39,103,32,222,,104,26,123,40*71
$GPGSV,7,6,26,105,5,,39,106,79,273,,108,43,47,26,110,5,,28*4E
$GPGSV,7,7,26,113,5,,27,114,5,,28*75
$GPRMC,053251.000,A,4000.0003,N,11601.4541,E,21.661,90.05,011211,,E,A*13
$GPGGA,053252.000,4000.0003,N,11601.4619,E,1,9,1.240,-8.367,M,,M,,*52
$GPGLL,4000.0003,N,11601.4619,E,053252.000,A,A*50
$GPGSA,A,3,3,6,7,13,16,19,21,23,30,,,,2.084,1.240,1.676*03
$GPGSV,7,1,26,2,41,286,,3,80,147,52,4,68,31,,5,23,219,*48
$GPGSV,7,2,26,6,71,78,52,7,19,310,52,10,80,169,,12,31,294,*43
$GPGSV,7,3,26,13,48,275,52,16,60,37,52,17,53,132,,19,49,192,52*4A
$GPGSV,7,4,26,21,14,54,52,23,44,230,52,25,12,319,,30,34,65,52*76
$GPGSV,7,5,26,101,36,146,,102,5,,39,103,32,222,,104,26,123,39*7F
$GPGSV,7,6,26,105,5,,39,106,79,273,,108,46,163,26,110,5,,29*7D
$GPGSV,7,7,26,113,5,,27,114,5,,28*75
$GPRMC,053252.000,A,4000.0003,N,11601.4619,E,21.655,90.03,011211,,E,A*1F
$GPGGA,053253.000,4000.0003,N,11601.4697,E,1,9,1.240,-8.385,M,,M,,*59
$GPGLL,4000.0003,N,11601.4697,E,053253.000,A,A*57
$GPGSA,A,3,3,6,7,13,16,19,21,23,30,,,,2.084,1.240,1.676*03
$GPGSV,7,1,26,2,41,286,,3,80,147,52,4,68,31,,5,23,219,*48
$GPGSV,7,2,26,6,71,78,52,7,19,310,52,10,80,169,,12,31,294,*43
$GPGSV,7,3,26,13,48,275,52,16,60,37,52,17,53,132,,19,49,192,52*4A
$GPGSV,7,4,26,21,14,54,52,23,44,230,52,25,12,319,,30,34,65,52*76
$GPGSV,7,5,26,101,36,146,,102,5,,39,103,32,222,,104,26,123,39*7F
$GPGSV,7,6,26,105,5,,39,106,79,273,,108,46,163,26,110,5,,28*7C
$GPGSV,7,7,26,113,5,,27,114,5,,28*75
$GPRMC,053253.000,A,4000.0003,N,11601.4697,E,21.669,90.06,011211,,E,A*12
$GPGGA,053254.000,4000.0003,N,11601.4775,E,1,9,1.240,-8.386,M,,M,,*50
$GPGLL,4000.0003,N,11601.4775,E,053254.000,A,A*5D
$GPGSA,A,3,3,6,7,13,16,19,21,23,30,,,,2.085,1.240,1.676*02
$GPGSV,7,1,26,2,41,286,,3,80,147,52,4,68,31,,5,23,219,*48
$GPGSV,7,2,26,6,71,78,52,7,19,310,52,10,80,169,,12,31,294,*43
$GPGSV,7,3,26,13,48,275,52,16,60,37,52,17,53,132,,19,49,192,52*4A
$GPGSV,7,4,26,21,14,54,52,23,44,230,52,25,12,319,,30,34,65,52*76
$GPGSV,7,5,26,101,36,146,,102,5,,39,103,32,222,,104,26,123,39*7F
$GPGSV,7,6,26,105,5,,39,106,79,273,,108,46,163,26,110,5,,28*7C
$GPGSV,7,7,26,113,5,,27,114,5,,28*75
$GPRMC,053254.000,A,4000.0003,N,11601.4775,E,21.661,90.04,011211,,E,A*12
$GPGGA,053255.000,4000.0003,N,11601.4853,E,1,9,1.240,-8.427,M,,M,,*56
$GPGLL,4000.0003,N,11601.4853,E,053255.000,A,A*57
$GPGSA,A,3,3,6,7,13,16,19,21,23,30,,,,2.085,1.240,1.676*02
$GPGSV,7,1,26,2,41,286,,3,80,147,52,4,68,31,,5,23,219,*48
$GPGSV,7,2,26,6,70,78,52,7,19,310,52,10,80,169,,12,31,294,*42
$GPGSV,7,3,26,13,48,275,52,16,60,37,52,17,53,132,,19,49,192,52*4A
$GPGSV,7,4,26,21,14,54,52,23,44,230,52,25,12,319,,30,34,65,52*76
$GPGSV,7,5,26,101,36,146,,102,5,,39,103,32,222,,104,26,123,39*7F
$GPGSV,7,6,26,105,5,,39,106,79,273,,108,46,163,26,110,5,,28*7C
$GPGSV,7,7,26,113,5,,27,114,5,,28*75
$GPRMC,053255.000,A,4000.0003,N,11601.4853,E,21.649,90.05,011211,,E,A*13
$GPGGA,053256.000,4000.0003,N,11601.4932,E,1,9,1.240,-8.506,M,,M,,*51
$GPGLL,4000.0003,N,11601.4932,E,053256.000,A,A*52
$GPGSA,A,3,3,6,7,13,16,19,21,23,30,,,,2.085,1.240,1.676*02
$GPGSV,7,1,26,2,41,286,,3,80,147,52,4,68,31,,5,23,219,*48
$GPGSV,7,2,26,6,70,78,52,7,19,310,52,10,80,169,,12,31,294,*42
$GPGSV,7,3,26,13,48,275,52,16,60,37,52,17,53,132,,19,49,192,52*4A
$GPGSV,7,4,26,21,14,54,52,23,44,230,52,25,12,319,,30,34,65,52*76
$GPGSV,7,5,26,101,36,146,,102,5,,39,103,32,222,,104,26,123,40*71
$GPGSV,7,6,26,105,5,,39,106,79,273,,108,46,163,26,110,5,,28*7C
$GPGSV,7,7,26,113,5,,27,114,5,,28*75
$GPRMC,053256.000,A,4000.0003,N,11601.4932,E,21.664,90.07,011211,,E,A*1B
$GPGGA,053257.000,4000.0003,N,11601.5010,E,1,9,1.240,-8.559,M,,M,,*52
$GPGLL,4000.0003,N,11601.5010,E,053257.000,A,A*5B
$GPGSA,A,3,3,6,7,13,16,19,21,23,30,,,,2.085,1.240,1.676*02
$GPGSV,7,1,26,2,41,286,,3,80,147,52,4,68,31,,5,23,219,*48
$GPGSV,7,2,26,6,70,78,52,7,19,310,52,10,80,169,,12,31,294,*42
$GPGSV,7,3,26,13,48,275,52,16,60,37,52,17,53,132,,19,49,192,52*4A
$GPGSV,7,4,26,21,14,54,52,23,44,230,52,25,12,319,,30,34,65,52*76
$GPGSV,7,5,26,101,36,146,,102,5,,39,103,32,222,,104,26,123,39*7F
$GPGSV,7,6,26,105,5,,39,106,79,273,,108,46,163,26,110,5,,28*7C
$GPGSV,7,7,26,113,5,,27,114,5,,28*75
$GPRMC,053257.000,A,4000.0003,N,11601.5010,E,21.683,90.09,011211,,E,A*15
$GPGGA,053258.000,4000.0003,N,11601.5088,E,1,9,1.240,-8.615,M,,M,,*57
$GPGLL,4000.0003,N,11601.5088,E,053258.000,A,A*55
$GPGSA,A,3,3,6,7,13,16,19,21,23,30,,,,2.085,1.240,1.676*02
$GPGSV,7,1,26,2,41,286,,3,80,147,52,4,68,31,,5,23,219,*48
$GPGSV,7,2,26,6,70,78,52,7,19,310,52,10,80,169,,12,31,294,*42
$GPGSV,7,3,26,13,48,275,52,16,60,37,52,17,53,132,,19,49,192,52*4A
$GPGSV,7,4,26,21,14,54,52,23,44,230,52,25,12,319,,30,34,65,52*76
$GPGSV,7,5,26,101,36,146,,102,5,,39,103,32,222,,104,26,123,39*7F
$GPGSV,7,6,26,105,5,,39,106,79,273,,108,46,163,26,110,5,,28*7C
$GPGSV,7,7,26,113,5,,27,114,5,,28*75
$GPRMC,053258.000,A,4000.0003,N,11601.5088,E,21.673,90.08,011211,,E,A*15
$GPGGA,053259.000,4000.0004,N,11601.5166,E,1,9,1.240,-8.708,M,,M,,*5D
$GPGLL,4000.0004,N,11601.5166,E,053259.000,A,A*52
$GPGSA,A,3,3,6,7,13,16,19,21,23,30,,,,2.085,1.240,1.676*02
$GPGSV,7,1,26,2,41,286,,3,80,147,52,4,68,31,,5,23,219,*48
$GPGSV,7,2,26,6,70,78,52,7,19,310,52,10,80,169,,12,31,294,*42
$GPGSV,7,3,26,13,48,275,52,16,60,37,52,17,53,132,,19,49,192,52*4A
$GPGSV,7,4,26,21,14,54,52,23,44,230,52,25,12,319,,30,34,65,52*76
$GPGSV,7,5,26,101,36,146,,102,5,,39,103,32,222,,104,26,123,39*7F
$GPGSV,7,6,26,105,5,,39,106,79,273,,108,46,163,26,110,5,,28*7C
$GPGSV,7,7,26,113,5,,27,114,5,,28*75
$GPRMC,053259.000,A,4000.0004,N,11601.5166,E,21.672,90.07,011211,,E,A*1C
$GPGGA,053300.000,4000.0004,N,11601.5244,E,1,9,1.240,-8.803,M,,M,,*57
$GPGLL,4000.0004,N,11601.5244,E,053300.000,A,A*5C
$GPGSA,A,3,3,6,7,13,16,19,21,23,30,,,,2.085,1.240,1.677*03
$GPGSV,7,1,26,2,41,286,,3,80,147,52,4,68,31,,5,23,219,*48
$GPGSV,7,2,26,6,70,78,52,7,19,310,52,10,80,169,,12,31,294,*42
$GPGSV,7,3,26,13,48,275,52,16,60,37,52,17,53,132,,19,49,192,52*4A
$GPGSV,7,4,26,21,14,54,52,23,44,230,52,25,12,319,,30,34,65,52*76
$GPGSV,7,5,26,101,36,146,,102,5,,39,103,32,222,,104,26,123,39*7F
$GPGSV,7,6,26,105,5,,39,106,79,273,,108,46,163,26,110,5,,28*7C
$GPGSV,7,7,26,113,5,,27,114,5,,28*75
$GPRMC,053300.000,A,4000.0004,N,11601.5244,E,21.676,90.08,011211,,E,A*19
$GPGGA,053301.000,4000.0005,N,11601.5322,E,1,9,1.240,-8.904,M,,M,,*50
$GPGLL,4000.0005,N,11601.5322,E,053301.000,A,A*5D
$GPGSA,A,3,3,6,7,13,16,19,21,23,30,,,,2.085,1.240,1.676*02
$GPGSV,7,1,26,2,41,286,,3,80,147,52,4,68,31,,5,23,219,*48
$GPGSV,7,2,26,6,70,78,52,7,19,310,52,10,80,169,,12,31,294,*42
$GPGSV,7,3,26,13,48,275,52,16,60,37,52,17,53,132,,19,49,192,52*4A
$GPGSV,7,4,26,21,14,54,52,23,44,230,52,25,12,319,,30,34,65,52*76
$GPGSV,7,5,26,101,36,146,,102,5,,39,103,32,222,,104,26,123,39*7F
$GPGSV,7,6,26,105,5,,39,106,79,273,,108,46,163,26,110,5,,28*7C
$GPGSV,7,7,26,113,5,,27,114,5,,28*75
$GPRMC,053301.000,A,4000.0005,N,11601.5322,E,21.664,90.02,011211,,E,A*11
$GPGGA,053302.000,4000.0005,N,11601.5400,E,1,9,1.240,-8.958,M,,M,,*5D
$GPGLL,4000.0005,N,11601.5400,E,053302.000,A,A*59
$GPGSA,A,3,3,6,7,13,16,19,21,23,30,,,,2.085,1.240,1.676*02
$GPGSV,7,1,26,2,41,286,,3,80,147,52,4,68,31,,5,23,219,*48
$GPGSV,7,2,26,6,70,78,52,7,19,310,52,10,80,169,,12,31,294,*42
$GPGSV,7,3,26,13,48,275,52,16,60,37,52,17,53,132,,19,49,192,52*4A
$GPGSV,7,4,26,21,14,54,52,23,44,229,52,25,12,319,,30,34,65,52*7E
$GPGSV,7,5,26,101,36,146,,102,5,,39,103,32,222,,104,26,123,39*7F
$GPGSV,7,6,26,105,5,,39,106,79,273,,108,46,163,26,110,5,,28*7C
$GPGSV,7,7,26,113,5,,27,114,5,,28*75
$GPRMC,053302.000,A,4000.0005,N,11601.5400,E,21.660,90.04,011211,,E,A*17
$GPGGA,053303.000,4000.0005,N,11601.5478,E,1,9,1.240,-8.983,M,,M,,*55
$GPGLL,4000.0005,N,11601.5478,E,053303.000,A,A*57
$GPGSA,A,3,3,6,7,13,16,19,21,23,30,,,,2.086,1.240,1.677*00
$GPGSV,7,1,26,2,41,286,,3,80,147,52,4,68,31,,5,23,219,*48
$GPGSV,7,2,26,6,70,78,52,7,19,310,52,10,80,169,,12,31,294,*42
$GPGSV,7,3,26,13,48,275,52,16,60,37,52,17,53,132,,19,49,192,52*4A
$GPGSV,7,4,26,21,14,54,52,23,44,229,52,25,12,319,,30,34,65,52*7E
$GPGSV,7,5,26,101,36,146,,102,5,,38,103,32,222,,104,26,123,39*7E
$GPGSV,7,6,26,105,5,,39,106,79,273,,108,46,163,26,110,5,,28*7C
$GPGSV,7,7,26,113,5,,27,114,5,,28*75
$GPRMC,053303.000,A,4000.0005,N,11601.5478,E,21.667,90.07,011211,,E,A*1D
$GPGGA,053304.000,4000.0004,N,11601.5556,E,1,9,1.240,-8.981,M,,M,,*5C
$GPGLL,4000.0004,N,11601.5556,E,053304.000,A,A*5C
$GPGSA,A,3,3,6,7,13,16,19,21,23,30,,,,2.086,1.240,1.677*00
$GPGSV,7,1,26,2,41,286,,3,80,146,52,4,68,31,,5,23,219,*49
$GPGSV,7,2,26,6,70,78,52,7,19,310,52,10,80,169,,12,31,294,*42
$GPGSV,7,3,26,13,48,275,52,16,60,37,52,17,53,132,,19,49,192,52*4A
$GPGSV,7,4,26,21,14,54,52,23,44,229,52,25,12,319,,30,34,65,52*7E
$GPGSV,7,5,26,101,36,146,,102,5,,39,103,32,222,,104,26,123,39*7F
$GPGSV,7,6,26,105,5,,38,106,79,273,,108,46,163,26,110,5,,28*7D
$GPGSV,7,7,26,113,5,,27,114,5,,28*75
$GPRMC,053304.000,A,4000.0004,N,11601.5556,E,21.693,90.08,011211,,E,A*12
$GPGGA,053305.000,4000.0003,N,11601.5633,E,1,9,1.240,-8.939,M,,M,,*59
$GPGLL,4000.0003,N,11601.5633,E,053305.000,A,A*5A
$GPGSA,A,3,3,6,7,13,16,19,21,23,30,,,,2.086,1.240,1.677*00
$GPGSV,7,1,26,2,41,286,,3,80,146,52,4,68,31,,5,23,219,*49
$GPGSV,7,2,26,6,70,78,52,7,19,310,52,10,80,169,,12,31,294,*42
$GPGSV,7,3,26,13,48,275,52,16,60,37,52,17,53,132,,19,49,192,52*4A
$GPGSV,7,4,26,21,14,54,52,23,44,229,52,25,12,319,,30,34,65,52*7E
$GPGSV,7,5,26,101,36,146,,102,5,,39,103,32,222,,104,26,123,39*7F
$GPGSV,7,6,26,105,5,,39,106,79,273,,108,46,163,26,110,5,,28*7C
$GPGSV,7,7,26,113,5,,27,114,5,,28*75
$GPRMC,053305.000,A,4000.0003,N,11601.5633,E,21.651,90.06,011211,,E,A*14
$GPGGA,053306.000,4000.0003,N,11601.5712,E,1,9,1.241,-8.928,M,,M,,*59
$GPGLL,4000.0003,N,11601.5712,E,053306.000,A,A*5B
$GPGSA,A,3,3,6,7,13,16,19,21,23,30,,,,2.086,1.241,1.677*01
$GPGSV,7,1,26,2,41,286,,3,80,146,51,4,68,31,,5,23,219,*4A
$GPGSV,7,2,26,6,70,78,52,7,19,310,52,10,80,169,,12,31,294,*42
$GPGSV,7,3,26,13,48,275,52,16,60,37,51,17,53,132,,19,49,192,52*49
$GPGSV,7,4,26,21,14,54,52,23,44,229,52,25,12,319,,30,34,66,52*7D
$GPGSV,7,5,26,101,36,146,,102,5,,39,103,32,222,,104,26,123,39*7F
$GPGSV,7,6,26,105,5,,39,106,79,273,,108,46,163,26,110,5,,28*7C
$GPGSV,7,7,26,113,5,,27,114,5,,28*75
$GPRMC,053306.000,A,4000.0003,N,11601.5712,E,21.666,90.08,011211,,E,A*1F
$GPGGA,053307.000,4000.0002,N,11601.5790,E,1,9,1.241,-8.935,M,,M,,*5F
$GPGLL,4000.0002,N,11601.5790,E,053307.000,A,A*51
$GPGSA,A,3,3,6,7,13,16,19,21,23,30,,,,2.086,1.241,1.677*01
$GPGSV,7,1,26,2,41,286,,3,80,146,51,4,68,31,,5,23,219,*4A
$GPGSV,7,2,26,6,70,78,51,7,19,310,52,10,80,169,,12,31,294,*41
